~Version Information Section
# This file generated by the LAST component (v1.2.08). Tver. R.E.A. 1999-2005
VERS. 2.0 : CWLS LOG ASCII STANDARD - VERSION 2.0"
WRAP. NO  :
~Well Information Section
STRT.M   2025.60 : Начальная Глубина
STOP.M   0700.00 : Конечная  Глубина
  STEP.M                          -0.2 : Шаг по Глубине
NULL.      -9999 : Признак "Нет данных"
DATE.  16.05.2024                                : Дата
TIME.  13:40:02 - 17:08:39                       : Время
~Curve Information Section
DEPT.M                   : Г Л У Б И Н А , м
TIME.S                   : В Р Е М Я , сек
SPID.M/H                 : Скорость м/ч
TENS.KG                  : Натяжение кабеля, кг
METKA.                   : =1 - Магнитная Метка
DTIME.MS                 : Интервальное Время,мс
MARKER.                  : Код маркера
CALI. MM                 : Поправленный Диаметр
GK.MKR                   : Cчет ГК
GK.IMP/M                 : Счет ГК  в имп/мин
NNKBZ.IMP/M              : Счет ННК БЗ в имп/мин
NNKMZ.IMP/M              : Счет ННК МЗ в имп/мин
~A Log data section
# ...
  975.6 7434.97400 536.00000 -283.32030 0 709.20 0 220.38337   7.96687  3744.42718  3296.99963  76438.3131
  975.4 7436.37030 536.00000 -324.07185 0 680.55 0 227.72914   8.09782  3805.97549  3235.40622  78885.2286
  975.2 7437.72610 536.00000 -299.75790 0 669.45 0 228.20678   8.68089  4080.01821  3531.15607  78647.7355
  975.0 7439.06175 532.66667 -263.22990 0 675.25 0 231.76293   8.80384  4137.80492  3205.04666  77777.1959
  974.8 7440.44430 522.33333 -291.65325 0 679.65 0 232.81203   8.89219  4179.32772  3906.27575  75016.6958
  974.6 7441.79335 518.66667 -274.98735 0 670.30 0 230.17667   8.68881  4083.74073  3550.75814  73540.5106
  974.4 7443.13165 536.00000 -297.01830 0 667.35 0 230.87079   9.02459  4241.55649  3845.27752  74256.1505
  974.2 7444.47805 536.00000 -283.32030 0 687.75 0 232.50862   7.42919  3491.71852  3576.49479  78167.5951
  974.0 7445.85140 536.00000 -309.34650 0 704.15 0 239.46599   6.74807  3171.59106  3351.19390  77990.1157
  973.8 7447.22995 536.00000 -269.27985 0 667.95 0 232.28726   5.97524  2808.36144  3888.90988  75933.6589
  973.6 7448.56820 536.00000 -267.68175 0 678.55 0 238.97861   6.44598  3029.61041  3555.38841  70974.7839
  973.4 7449.93310 526.00000 -282.17880 0 684.35 0 245.37692   6.86387  3226.01793  3097.88334  71621.9542
  973.2 7451.31740 526.00000 -287.08725 0 674.80 0 252.88533   6.18036  2904.76872  3325.51146  74548.4564
  973.0 7452.66165 526.00000 -285.71745 0 667.95 0 251.93945   6.35899  2988.72751  3609.16428  75598.2271
  972.8 7454.00885 526.00000 -258.32145 0 685.50 0 243.00027   6.43064  3022.40199  3489.04180  73626.4452
  972.6 7455.37360 526.00000 -280.12410 0 669.35 0 238.44084   7.86308  3695.64882  2915.01259  74107.8620
  972.4 7456.70795 526.00000 -278.86845 0 689.30 0 220.28287   8.17945  3844.34217  2737.73461  74286.3144
  972.2 7458.06985 536.00000 -295.07775 0 684.70 0 207.33539   7.21827  3392.58693  3665.27042  77917.0057
  972.0 7459.44205 531.00000 -284.91840 0 681.15 0 203.47787   8.38283  3939.93222  4121.56185  81657.9146
  971.8 7460.79940 526.00000 -300.32865 0 673.10 0 216.68948   6.85385  3221.30838  4579.55801  86598.1695
  971.6 7462.16265 526.00000 -288.00045 0 672.55 0 227.32261   5.84670  2747.94700  4914.71865  90992.4659
  971.4 7463.52215 536.00000 -308.09085 0 684.75 0 229.84784   6.23745  2931.60028  5076.73352  93889.5981
  971.2 7464.88700 536.00000 -300.44280 0 676.30 0 226.92129   6.86970  3228.76106  6035.84939  93583.5083
  971.0 7466.23350 536.00000 -274.98735 0 666.85 0 229.26219   6.08998  2862.28925  6330.65191  93537.7215
  970.8 7467.57630 531.00000 -309.23235 0 713.75 0 228.95336   5.73707  2696.42223  5557.60822  90646.8815
  970.6 7468.97495 526.00000 -279.78165 0 672.80 0 229.24731   6.10114  2867.53763  5753.40186  89031.0483
  970.4 7470.31600 526.00000 -291.65325 0 665.80 0 226.89113   6.51526  3062.17425  5669.10923  86821.9731
  970.2 7471.64085 526.00000 -290.74005 0 671.40 0 229.09513   6.66789  3133.90901  5018.99468  85472.1918
  970.0 7473.04950 526.00000 -276.12885 0 733.90 0 231.29641   5.71830  2687.60305  4709.32462  84420.9226
  969.8 7474.46110 531.00000 -309.91725 0 671.40 0 233.01824   6.52151  3065.10872  4877.02979  87070.1734
  969.6 7475.80435 536.00000 -285.94575 0 669.25 0 232.77189   6.18957  2909.09799  4625.14463  85842.0206
  969.4 7477.15180 536.00000 -281.03730 0 691.90 0 234.99389   6.48351  3047.24816  4417.33707  81786.7292
  969.2 7478.54995 526.00000 -314.93985 0 673.35 0 237.24476   6.45746  3035.00506  4764.94284  84500.5159
  969.0 7479.89475 526.00000 -271.10625 0 665.55 0 232.22275   6.10808  2870.79990  5121.05854  85984.1348
  968.8 7481.23115 526.00000 -279.78165 0 682.20 0 234.33033   6.45256  3032.70449  5403.29889  83687.4522
  968.6 7482.60000 520.50000 -286.85895 0 682.30 0 231.47676   7.31396  3437.56170  5131.55229  87428.0020
  968.4 7483.95745 515.00000 -282.63540 0 693.00 0 229.81337   6.80722  3199.39372  4644.88378  91191.0211
  968.2 7485.31025 525.83333 -293.59380 0 662.25 0 229.93782   5.79538  2723.82960  4766.90524  95458.6920
  968.0 7486.65065 532.66667 -312.65685 0 710.35 0 227.13338   5.30894  2495.20079  5340.69441  94608.5810
  967.8 7488.09110 536.00000 -315.39645 0 673.85 0 228.42850   6.21677  2921.87975  5090.01698  88956.0529
  967.6 7489.43955 532.66667 -274.41660 0 692.85 0 226.87261   5.91958  2782.20373  4739.28862  84340.1318
  967.4 7490.80435 522.33333 -279.21090 0 687.90 0 234.65520   6.00762  2823.57910  4250.55497  86711.7660
  967.2 7492.17815 515.00000 -287.88630 0 682.10 0 243.29470   6.21404  2920.59769  4111.21517  89689.0394
  967.0 7493.53515 525.83333 -319.62000 0 669.85 0 230.87414   5.24762  2466.38309  4184.32613  89589.3460
  966.8 7494.87205 532.66667 -286.40235 0 671.50 0 231.59103   5.30886  2495.16185  4571.54823  90112.4646
  966.6 7496.25965 536.00000 -267.56760 0 690.20 0 229.61666   6.06863  2852.25510  4824.43051  88280.3960
  966.4 7497.62830 536.00000 -288.11460 0 677.80 0 226.33729   5.80381  2727.78903  4342.35035  85698.5722
  966.2 7498.97845 536.00000 -308.31915 0 664.80 0 227.49011   5.69570  2676.97807  5176.45829  87463.3716
  966.0 7500.30890 536.00000 -271.22040 0 705.80 0 228.34117   5.38461  2530.76869  5565.39696  92797.1998
  965.8 7501.69655 526.00000 -286.28820 0 671.40 0 224.68472   6.18683  2907.80849  4905.56934  91186.8696
  965.6 7503.04165 526.00000 -275.32980 0 669.60 0 222.75615   5.34383  2511.59977  4828.27688  88933.8976
  965.4 7504.38190 531.00000 -284.34765 0 679.90 0 223.63474   5.26332  2473.76019  4549.88071  87661.1530
  965.2 7505.75085 536.00000 -289.48440 0 685.80 0 229.08331   5.89941  2772.72081  4528.81408  86758.1361
  965.0 7507.13470 525.83333 -273.27510 0 672.05 0 229.03411   6.18305  2906.03507  4281.27498  86020.0447
  964.8 7508.47605 518.66667 -293.02305 0 667.80 0 230.60983   5.93828  2790.98954  4410.14829  87818.7060
  964.6 7509.82150 518.66667 -278.41185 0 687.85 0 230.14184   5.77588  2714.66162  5119.19883  88215.9630
  964.4 7511.19225 527.66667 -286.74480 0 702.65 0 229.64131   5.12221  2407.43711  5064.68423  88204.2094
  964.2 7512.56885 526.00000 -306.83520 0 687.05 0 232.27364   5.31123  2496.27602  4082.51746  85806.4189
  964.0 7513.97025 526.00000 -281.26560 0 677.05 0 237.90902   6.36943  2993.63246  4071.99615  83880.6080
  963.8 7515.32890 526.00000 -288.79950 0 676.75 0 247.44891   6.65999  3130.19578  4894.19005  88693.6686
  963.6 7516.67810 526.00000 -277.04205 0 697.45 0 248.54007   7.16897  3369.41560  5302.85208  93368.2230
  963.4 7518.04455 527.66667 -269.50815 0 671.30 0 233.04961   6.51332  3061.25991  4955.31745  93398.4161
  963.2 7519.40410 537.83333 -274.30245 0 688.25 0 230.09887   5.28370  2483.33978  4513.47703  96320.9349
  963.0 7520.77760 536.00000 -310.37385 0 676.15 0 228.63890   5.94759  2795.36772  4800.29229  98083.4503
  962.8 7522.12275 527.50000 -303.86730 0 669.60 0 228.32774   7.47818  3514.74273  4758.26815  94419.8977
  962.6 7523.48830 526.00000 -281.26560 0 680.60 0 226.90530   6.89882  3242.44363  4698.10169  93322.9474
  962.4 7524.85590 526.00000 -287.08725 0 683.80 0 223.86669   6.10963  2871.52646  5274.83532  94899.3140
  962.2 7526.21445 526.00000 -304.32390 0 678.95 0 225.95174   6.13129  2881.70410  5254.37398  92838.2137
  962.0 7527.56140 526.00000 -282.06465 0 697.40 0 223.71540   6.05576  2846.20506  5052.03656  92161.5718
  961.8 7528.94750 526.00000 -276.01470 0 685.50 0 220.78148   5.86263  2755.43426  5873.15298  92385.2433
  961.6 7530.30385 536.00000 -333.20385 0 666.85 0 220.12998   6.12313  2877.86953  6490.64651  90801.2246
  961.4 7531.64025 536.00000 -301.92675 0 661.55 0 223.50479   5.57293  2619.27742  5485.10470  89021.3798
  961.2 7532.97615 531.00000 -296.67585 0 687.25 0 224.23291   5.37331  2525.45562  5327.47054  86597.5267
  961.0 7534.37350 526.00000 -279.55335 0 680.65 0 229.73923   5.92122  2782.97260  5831.29561  88681.3125
  960.8 7535.73225 526.00000 -284.57595 0 673.30 0 225.06406   6.02662  2832.51010  5317.06442  88353.0997
