~Version Information Section
# This file generated by the LAST component (v1.2.08). Tver. R.E.A. 1999-2005
VERS. 2.0 : CWLS LOG ASCII STANDARD - VERSION 2.0"
WRAP. NO  :
~Well Information Section
STRT.M   2025.60 : Начальная Глубина
STOP.M   0700.00 : Конечная  Глубина
  STEP.M                          -0.2 : Шаг по Глубине
NULL.      -9999 : Признак "Нет данных"
DATE.  16.05.2024                                : Дата
TIME.  13:40:02 - 17:08:39                       : Время
~Curve Information Section
DEPT.M                   : Г Л У Б И Н А , м
TIME.S                   : В Р Е М Я , сек
SPID.M/H                 : Скорость м/ч
TENS.KG                  : Натяжение кабеля, кг
METKA.                   : =1 - Магнитная Метка
DTIME.MS                 : Интервальное Время,мс
MARKER.                  : Код маркера
CALI. MM                 : Поправленный Диаметр
GK.MKR                   : Cчет ГК
GK.IMP/M                 : Счет ГК  в имп/мин
NNKBZ.IMP/M              : Счет ННК БЗ в имп/мин
NNKMZ.IMP/M              : Счет ННК МЗ в имп/мин
~A Log data section
# ...
 1680.6 2511.16965 483.00000 -323.61525 0 775.10 0 271.32606  10.20216  4795.01585  5491.50166  97117.9732
 1680.4 2512.70570 483.00000 -294.96360 0 747.35 0 276.48790   9.44705  4440.11363  5951.01325 102629.9340
 1680.2 2514.18940 483.00000 -300.32865 0 726.40 0 268.46339   9.87537  4641.42387  6612.39300 110167.7600
 1680.0 2515.69510 483.00000 -301.69845 0 776.15 0 258.64394   9.78392  4598.44406  6811.69268 111368.0080
 1679.8 2517.19850 483.00000 -293.02305 0 740.40 0 258.48007  10.63820  4999.95359  5800.17771 104025.3590
 1679.6 2518.68840 483.00000 -302.15505 0 745.80 0 264.78154  10.85723  5102.89623  5489.30342 105696.4720
 1679.4 2520.17070 483.00000 -305.80785 0 735.85 0 263.22626  10.81465  5082.88469  5668.14455 112392.8700
 1679.2 2521.65975 494.00000 -296.56170 0 728.00 0 262.47259  10.03213  4715.09922  5836.98833 112201.5260
 1679.0 2523.13120 488.50000 -274.75905 0 746.35 0 261.06608  11.41037  5362.87225  5631.36131 109857.6170
 1678.8 2524.61725 483.00000 -309.00405 0 733.95 0 257.30780  11.27538  5299.42912  6635.76960 108033.1730
 1678.6 2526.08310 483.00000 -294.62115 0 725.55 0 254.11149  11.38556  5351.21529  6906.85016 109996.2160
 1678.4 2527.53910 483.00000 -302.83995 0 766.75 0 254.12710  11.18827  5258.48545  6406.32645 112008.3650
 1678.2 2529.04670 483.00000 -282.97785 0 737.40 0 255.76726   9.83924  4624.44452  6003.98688 109260.2370
 1678.0 2530.51540 483.00000 -282.86370 0 728.50 0 258.34669  10.25680  4820.69506  6289.76057 108867.1150
 1677.8 2531.97000 483.00000 -302.26920 0 737.40 0 262.55917  10.46864  4920.26164  6574.02700 111774.5180
 1677.6 2533.48305 483.00000 -298.95885 0 745.45 0 258.05986   9.23170  4338.89982  6471.15009 114151.7680
 1677.4 2534.96665 488.50000 -302.04090 0 730.75 0 256.12537   9.67857  4548.92738  6452.95657 111607.0890
 1677.2 2536.42425 494.00000 -284.23350 0 727.75 0 255.57484  11.06924  5202.54324  6615.80240 112690.1300
 1677.0 2537.88795 494.00000 -294.50700 0 745.55 0 254.22609  14.01340  6586.29579  6420.00200 112053.8330
 1676.8 2539.37945 494.00000 -314.02665 0 763.00 0 258.70686  14.14558  6648.42457  5882.84886 109067.6000
 1676.6 2540.87325 494.00000 -288.68535 0 727.65 0 248.32143  11.00121  5170.56904  6309.91563 109663.6760
 1676.4 2542.32700 483.00000 -287.77215 1 735.75 0 246.32033   9.90142  4653.66658  6868.38760 111911.4730
 1676.2 2543.80600 483.00000 -289.14195 0 741.20 0 246.97844  10.03995  4718.77703  6585.00269 114526.1720
 1676.0 2545.30910 483.00000 -294.39285 0 729.80 0 245.40660   9.92912  4666.68793  6415.92117 110152.7420
 1675.8 2546.76415 483.00000 -298.50225 0 728.70 0 242.99047  10.65535  5008.01554  6661.44141 111367.7800
 1675.6 2548.23500 483.00000 -307.63425 0 752.15 0 241.59910  11.37468  5346.10053  6898.46086 110986.6190
 1675.4 2549.73280 488.50000 -290.39760 0 734.00 0 241.61830  12.49984  5874.92394  5972.67775 106969.8190
 1675.2 2551.19625 494.00000 -284.91840 0 750.20 0 246.44861  11.03238  5185.21672  5945.72524 108044.3840
 1675.0 2552.67610 488.50000 -282.40710 0 744.45 0 243.83414  10.74832  5051.70811  6261.37474 112458.5760
 1674.8 2554.17075 483.00000 -287.20140 0 744.65 0 242.99279  10.56127  4963.79882  7348.61729 115238.8850
 1674.6 2555.65150 483.00000 -288.22875 0 732.45 0 244.66942   9.56816  4497.03655  7130.68506 115743.2940
 1674.4 2557.13235 483.00000 -289.25610 0 722.95 0 248.16204  10.57427  4969.90870  7416.70126 116184.7450
 1674.2 2558.59425 483.00000 -281.15145 0 746.45 0 247.87147  10.49527  4932.77486  7604.60858 114547.0080
 1674.0 2560.07995 483.00000 -292.45230 0 731.70 0 246.80528   9.90761  4656.57533  7188.81613 115729.3760
 1673.8 2561.54450 483.00000 -290.39760 0 751.25 0 243.85254   9.82858  4619.43307  6091.94668 113324.1120
 1673.6 2563.02575 483.00000 -294.96360 0 746.60 0 243.13830  10.80109  5076.51016  6299.94665 109207.2610
 1673.4 2564.52105 483.00000 -286.63065 0 740.40 0 242.26605  10.57751  4971.43099  6445.25551 112098.9830
 1673.2 2565.99620 483.00000 -281.83635 0 733.80 0 242.39578  11.12838  5230.34026  5994.30608 109773.3700
 1673.0 2567.45565 494.00000 -301.81260 0 730.70 0 242.52558  11.82160  5556.15013  5597.90598 105809.8350
 1672.8 2568.96230 494.00000 -282.40710 0 747.70 0 242.45447  11.79618  5544.20522  5880.03919 106510.8870
 1672.6 2570.44730 483.00000 -277.84110 0 733.95 0 242.41555  10.32121  4850.96716  6384.21838 111404.7730
 1672.4 2571.91010 483.00000 -286.28820 0 721.30 0 241.80394   9.92502  4664.75917  5897.00165 114715.5930
 1672.2 2573.35780 483.00000 -289.94100 0 771.00 0 241.21710  10.85305  5100.93225  6752.19549 115374.9500
 1672.0 2574.87690 483.00000 -302.38335 0 739.45 0 241.06455  10.51652  4942.76384  7274.36055 117048.6340
 1671.8 2576.35080 483.00000 -307.06350 0 735.35 0 240.49642   9.86849  4638.19035  7911.12710 116534.7310
 1671.6 2577.81575 483.00000 -285.94575 0 733.30 0 239.79053  10.25909  4821.77456  6733.69216 116021.1420
 1671.4 2579.29970 483.00000 -297.13245 0 749.50 0 240.93059   8.91659  4190.79662  6390.93931 117035.2080
 1671.2 2580.81210 483.00000 -293.47965 0 735.30 0 241.72566   9.73882  4577.24612  7517.69020 120592.5320
 1671.0 2582.27655 494.00000 -294.84945 0 724.55 0 246.49505  10.13062  4761.39081  7266.21905 115291.6680
 1670.8 2583.74055 494.00000 -304.09560 0 754.10 0 244.35136   9.41998  4427.39103  7093.42297 107846.3930
 1670.6 2585.24430 483.00000 -324.98505 0 761.45 0 241.53196   9.43941  4436.52242  5818.85533 106561.7600
 1670.4 2586.73595 483.00000 -289.02780 0 723.55 0 249.59495  10.85382  5101.29675  5380.97807 106768.4520
 1670.2 2588.18640 483.91667 -302.95410 0 740.80 0 261.94759  11.08585  5210.34838  6518.89880 109301.3650
 1670.0 2589.72155 475.66667 -284.00520 0 766.65 0 250.77904  10.31897  4849.91524  6774.47610 113912.8340
 1669.8 2591.22730 477.50000 -294.39285 0 735.85 0 241.80606  10.12489  4758.69595  6794.49816 118672.9680
 1669.6 2592.68575 483.00000 -300.44280 0 752.85 0 242.04721   9.94640  4674.80905  6486.58761 117552.9350
 1669.4 2594.18475 483.00000 -297.47490 0 750.10 0 242.66490  10.66736  5013.66022  6439.54071 115824.8090
 1669.2 2595.68125 494.00000 -288.11460 0 736.45 0 242.02686  10.05917  4727.81051  6585.77546 113618.2970
 1669.0 2597.15140 494.00000 -305.92200 0 726.80 0 243.30637  10.58614  4975.48618  7186.96411 113526.6120
 1668.8 2598.63385 488.50000 -285.83160 0 750.35 0 244.53215  10.13845  4765.07075  6668.93118 113433.2110
 1668.6 2600.13385 483.00000 -303.29655 0 736.70 0 246.16093   9.27068  4357.21811  6470.80430 108838.2590
 1668.4 2601.59930 483.00000 -291.65325 0 726.20 0 246.32230   9.04043  4249.00066  6730.22286 110193.9910
 1668.2 2603.04815 483.00000 -299.30130 0 755.70 0 246.30267   9.32329  4381.94818  6509.35865 112804.1710
 1668.0 2604.55225 483.00000 -302.61165 0 747.50 0 244.57459   9.97691  4689.14823  6144.31330 114431.4970
 1667.8 2606.03685 483.00000 -297.58905 0 731.15 0 244.82424  10.90526  5125.47040  6742.66078 108833.5840
 1667.6 2607.49925 483.00000 -310.60215 0 726.10 0 242.07458  11.80185  5546.86994  7038.25905 108484.6390
 1667.4 2608.95815 483.00000 -279.09675 0 750.75 0 240.58903  14.26779  6705.86253  6849.05487 116481.4550
 1667.2 2610.48200 483.00000 -282.52125 0 737.60 0 240.59815  16.34098  7680.26231  7812.28619 121740.2400
 1667.0 2611.95140 488.50000 -323.61525 0 725.50 0 237.87867  11.45926  5385.85093  7741.08230 121744.7680
 1666.8 2613.40055 494.00000 -290.16930 0 737.85 0 237.48458  13.53586  6361.85234  7118.50901 121500.0620
 1666.6 2614.88760 488.50000 -286.51650 0 769.60 0 237.72053  14.50989  6819.64646  7132.75916 117859.9190
 1666.4 2616.39305 483.00000 -301.35600 0 728.25 0 239.50175  10.94728  5145.22013  7005.42861 113569.3400
 1666.2 2617.84185 483.00000 -296.33340 1 722.90 0 241.46408  11.07801  5206.66618  6800.30083 113775.0180
 1666.0 2619.30335 494.00000 -269.96475 0 750.50 0 241.50650  11.83988  5564.74147  6647.29036 111754.7460
 1665.8 2620.79910 494.00000 -302.49750 0 735.10 0 241.09716   9.82100  4615.86925  6350.54312 111479.6230
