~Version Information Section
# This file generated by the LAST component (v1.2.08). Tver. R.E.A. 1999-2005
VERS. 2.0 : CWLS LOG ASCII STANDARD - VERSION 2.0"
WRAP. NO  :
~Well Information Section
STRT.M   2025.60 : Начальная Глубина
STOP.M   0700.00 : Конечная  Глубина
  STEP.M                          -0.2 : Шаг по Глубине
NULL.      -9999 : Признак "Нет данных"
DATE.  16.05.2024                                : Дата
TIME.  13:40:02 - 17:08:39                       : Время
~Curve Information Section
DEPT.M                   : Г Л У Б И Н А , м
TIME.S                   : В Р Е М Я , сек
SPID.M/H                 : Скорость м/ч
TENS.KG                  : Натяжение кабеля, кг
METKA.                   : =1 - Магнитная Метка
DTIME.MS                 : Интервальное Время,мс
MARKER.                  : Код маркера
CALI. MM                 : Поправленный Диаметр
GK.MKR                   : Cчет ГК
GK.IMP/M                 : Счет ГК  в имп/мин
NNKBZ.IMP/M              : Счет ННК БЗ в имп/мин
NNKMZ.IMP/M              : Счет ННК МЗ в имп/мин
~A Log data section
# ...
 1935.6  565.95820 456.00000 -279.89580 0 770.10 0 222.66920   6.47950  3045.36369  4438.78472  88131.5446
 1935.4  567.51290 461.00000 -269.73645 0 790.60 0 227.92768   6.98172  3281.40962  4226.58775  85458.6332
 1935.2  569.08835 461.00000 -286.51650 0 771.50 0 228.66530   7.11856  3345.72545  4231.08272  82517.9892
 1935.0  570.63010 460.25000 -277.61280 0 768.30 0 234.80594   7.15723  3363.89674  4110.41910  86904.3846
 1934.8  572.19670 454.33333 -273.84585 0 784.20 0 249.84604   6.88705  3236.91488  4599.82100  92402.3330
 1934.6  573.76750 451.00000 -297.70320 0 776.80 0 263.93128   7.44290  3498.16200  4592.11785  91287.3141
 1934.4  575.30985 451.00000 -281.37975 0 817.15 0 259.59965   7.67385  3606.71111  4518.22013  83130.7597
 1934.2  576.91970 461.16667 -308.20500 0 780.60 0 265.60092   7.71600  3626.52004  4033.10321  86864.4371
 1934.0  578.51915 461.00000 -278.29770 0 785.55 0 254.86522   7.06592  3320.98303  4299.14875  92225.1606
 1933.8  580.08200 461.00000 -273.73170 0 774.75 0 251.39423   6.61969  3111.25622  4500.17355  90743.7371
 1933.6  581.62490 461.00000 -275.32980 0 768.85 0 256.81952   6.38027  2998.72581  4762.92862  88143.0610
 1933.4  583.17460 461.00000 -277.84110 0 812.85 0 250.22747   6.65169  3126.29402  4332.38838  88187.9114
 1933.2  584.77435 461.00000 -285.26085 0 779.35 0 248.47725   6.51857  3063.72750  4021.15306  86348.1873
 1933.0  586.32480 461.91667 -286.40235 0 765.45 0 243.66634   6.72465  3160.58478  4108.43681  85965.8964
 1932.8  587.85935 454.33333 -273.84585 0 788.50 0 245.43101   7.01214  3295.70457  4478.33544  94160.0121
 1932.6  589.43750 451.00000 -305.00880 0 774.40 0 232.04852   7.96603  3744.03434  5557.94403  99323.4851
 1932.4  591.00905 456.00000 -291.65325 0 777.80 0 225.35980   8.34023  3919.90708  6178.00756  97964.4693
 1932.2  592.56030 461.00000 -266.19780 0 773.50 0 229.54015   8.64412  4062.73728  5664.22621  98608.4844
 1932.0  594.12125 461.00000 -267.79590 0 789.50 0 236.46942   8.61792  4050.42150  5979.90771 106089.4900
 1931.8  595.69555 461.00000 -288.00045 0 805.05 0 230.59340   7.38585  3471.34831  6228.22203 108028.7530
 1931.6  597.27500 461.00000 -284.57595 0 769.60 0 226.79781   6.62763  3114.98824  5411.98314 109004.4470
 1931.4  598.81805 451.00000 -289.59855 0 790.25 0 226.89085   6.42330  3018.95234  5703.96567 107830.9480
 1931.2  600.40375 451.00000 -269.50815 0 783.35 0 224.87712   8.03114  3774.63423  5945.81660 104969.4600
 1931.0  601.96375 461.00000 -253.29885 0 776.30 0 226.49126   9.07391  4264.73931  5935.95605 102383.9090
 1930.8  603.55555 461.00000 -287.65800 0 818.45 0 229.47143   9.49282  4461.62406  5550.91058 103320.0750
 1930.6  605.15930 461.00000 -277.95525 0 788.60 0 231.11245   8.73955  4107.58771  5252.45162 102546.6850
 1930.4  606.72780 461.00000 -271.33455 0 774.85 0 230.80651   8.61623  4049.62754  5025.03276  94686.4348
 1930.2  608.28055 461.00000 -273.50340 0 772.90 0 234.17241   9.06837  4262.13499  4770.92526  89982.2834
 1930.0  609.88115 461.00000 -281.49390 0 844.60 0 247.41305   8.70603  4091.83351  5154.55233  94306.8170
 1929.8  611.51800 461.00000 -275.67225 0 780.85 0 248.69570   8.81273  4141.98317  5744.55178 100057.6560
 1929.6  613.07485 461.91667 -275.78640 0 769.00 0 247.82817   8.00180  3760.84662  5731.64226 104008.5470
 1929.4  614.61150 454.33333 -293.02305 0 779.85 0 247.34488   6.85346  3221.12555  6193.41165 102237.9280
 1929.2  616.21180 451.00000 -295.64850 0 790.80 0 244.66847   7.33975  3449.68459  5860.22888  98127.6671
 1929.0  617.77815 451.00000 -290.39760 0 767.85 0 245.64917   8.01650  3767.75515  5671.50844  97826.4993
 1928.8  619.30620 459.50000 -284.00520 0 766.55 0 251.97647   9.56164  4493.97215  5209.51992  97923.9867
 1928.6  620.85945 461.16667 -293.59380 0 790.90 0 252.33049   9.02323  4240.92012  5137.00112  96752.5175
 1928.4  622.43775 461.00000 -291.31080 0 808.50 0 251.84297   8.77335  4123.47477  4784.30775  94549.2935
 1928.2  624.02535 462.00000 -273.16095 0 776.45 0 252.06946   8.33411  3917.03232  4797.46393  91123.5859
 1928.0  625.57190 461.00000 -281.26560 0 774.50 0 256.28736   8.77851  4125.89814  5495.23479  92158.4956
 1927.8  627.13690 460.25000 -297.58905 0 793.85 0 261.61414   9.98355  4692.26657  6091.66006  96790.3352
 1927.6  628.73420 454.33333 -276.35715 0 771.05 0 249.44871   9.80405  4607.90532  6335.79398 100275.1190
 1927.4  630.27375 451.00000 -256.15260 0 773.35 0 241.61670   9.06201  4259.14631  5975.99100 103416.6250
 1927.2  631.83420 454.33333 -268.93740 0 790.10 0 240.02734   9.10560  4279.63413  5681.44699 105198.7700
 1927.0  633.40645 462.83333 -282.29295 0 771.90 0 235.51207   9.76103  4587.68185  5957.94112 107817.7810
 1926.8  634.94925 461.91667 -274.98735 0 794.25 0 235.30733   9.36953  4403.67736  5768.71185 110126.2070
 1926.6  636.52035 459.33333 -273.27510 0 793.05 0 235.57804   9.99875  4699.41371  6092.70775 109312.3870
 1926.4  638.10365 461.00000 -276.92790 0 781.00 0 238.75719   9.35059  4394.77802  6176.68112 106395.3010
 1926.2  639.65915 461.00000 -275.90055 0 774.30 0 241.79682   8.30801  3904.76437  5863.83073 104152.4210
 1926.0  641.23025 461.00000 -280.46655 0 772.80 0 241.82430   8.56845  4027.16948  5761.57826 105169.2950
 1925.8  642.78770 460.25000 -276.92790 0 790.15 0 240.94187   9.40922  4422.33162  6120.55618 104330.1270
 1925.6  644.36360 461.00000 -284.91840 0 774.05 0 240.01304   9.66314  4541.67809  5728.83056 103810.2960
 1925.4  645.90820 461.00000 -264.14310 0 769.85 0 240.65244   9.45804  4445.28020  5971.89807 101584.7780
 1925.2  647.45670 461.00000 -271.33455 0 815.55 0 243.11842   9.11531  4284.19356  5222.22451  99146.6513
 1925.0  649.05450 461.00000 -275.21565 0 775.00 0 250.19096   8.97257  4217.10994  4957.33440  99602.7285
 1924.8  650.60295 461.00000 -297.70320 0 771.20 0 252.77553   9.07633  4265.87602  5502.68456 102974.8830
 1924.6  652.14385 451.00000 -285.60330 0 781.95 0 256.29872   8.57596  4030.69890  5716.12237 101011.7440
 1924.4  653.74895 451.00000 -260.14785 0 789.25 0 256.54105   9.71098  4564.16123  6273.09314 104494.2720
 1924.2  655.31415 454.33333 -278.29770 0 774.85 0 256.32630   9.74457  4579.94581  5982.99574 108132.2910
 1924.0  656.85805 462.83333 -279.32505 0 769.45 0 255.49355   7.97801  3749.66515  6043.92035 109707.5590
 1923.8  658.41530 461.00000 -267.79590 0 822.50 0 249.10288   7.22749  3396.91883  5371.55326 105478.0120
 1923.6  660.02185 461.00000 -306.26445 0 773.80 0 240.75788   7.13625  3354.03606  5145.41892 103899.2620
 1923.4  661.56945 461.00000 -279.43920 0 766.20 0 236.40473   7.06026  3318.32114  4955.24642 102580.6050
 1923.2  663.09930 461.00000 -276.24300 0 776.50 0 233.70917   6.68763  3143.18454  6122.92783 102869.0570
 1923.0  664.66415 461.00000 -285.48915 0 788.35 0 233.25038   7.41475  3484.93446  5779.34964 104806.6180
 1922.8  666.25550 461.00000 -272.01945 0 771.85 0 233.48757   7.57301  3559.31279  5164.94510 105810.9830
 1922.6  667.79660 460.25000 -269.16570 0 771.00 0 225.31670   7.83515  3682.51821  5806.99748 103466.9000
 1922.4  669.35680 454.33333 -276.12885 0 795.30 0 236.89320   9.35573  4397.19168  5828.10877 104410.7100
 1922.2  670.93530 451.00000 -288.57120 0 800.70 0 236.64159   9.93750  4670.62335  5819.48019 106963.0580
 1922.0  672.51180 461.16667 -292.56645 0 769.60 0 235.94585   8.95447  4208.59880  6105.98035 106946.6200
 1921.8  674.05365 468.33333 -302.72580 0 789.70 0 237.05975   9.56686  4496.42534  6843.75985 105429.7480
 1921.6  675.63480 468.33333 -265.05630 0 782.15 0 237.73495   9.17078  4310.26717  6532.52238 105185.8890
 1921.4  677.19070 459.33333 -261.40350 0 768.65 0 237.38097   9.44476  4439.03827  5538.92611 101315.3630
 1921.2  678.74800 461.00000 -279.43920 0 771.70 0 236.57910   8.70972  4093.56750  5206.86563 100690.1790
 1921.0  680.30780 461.00000 -270.87795 0 789.35 0 237.02140   7.78460  3658.76282  5492.95222 103997.6830
 1920.8  681.88110 461.00000 -297.01830 0 778.35 0 233.83283   7.90689  3716.24020  5001.77570 100435.0770
