~Version Information Section
# This file generated by the LAST component (v1.2.08). Tver. R.E.A. 1999-2005
VERS. 2.0 : CWLS LOG ASCII STANDARD - VERSION 2.0"
WRAP. NO  :
~Well Information Section
STRT.M   2025.60 : Начальная Глубина
STOP.M   0700.00 : Конечная  Глубина
  STEP.M                          -0.2 : Шаг по Глубине
NULL.      -9999 : Признак "Нет данных"
DATE.  16.05.2024                                : Дата
TIME.  13:40:02 - 17:08:39                       : Время
~Curve Information Section
DEPT.M                   : Г Л У Б И Н А , м
TIME.S                   : В Р Е М Я , сек
SPID.M/H                 : Скорость м/ч
TENS.KG                  : Натяжение кабеля, кг
METKA.                   : =1 - Магнитная Метка
DTIME.MS                 : Интервальное Время,мс
MARKER.                  : Код маркера
CALI. MM                 : Поправленный Диаметр
GK.MKR                   : Cчет ГК
GK.IMP/M                 : Счет ГК  в имп/мин
NNKBZ.IMP/M              : Счет ННК БЗ в имп/мин
NNKMZ.IMP/M              : Счет ННК МЗ в имп/мин
~A Log data section
# ...
 1155.6 6213.55395 536.00000 -287.77215 1 658.60 0 300.15229   6.42287  3018.75047  5508.07384  93645.8262
 1155.4 6214.86880 536.00000 -302.72580 0 682.90 0 279.76335   6.60678  3105.18851  5427.66360  93354.0619
 1155.2 6216.22415 536.00000 -318.25020 0 681.30 0 286.38338   7.43391  3493.93864  5630.17528  98563.0410
 1155.0 6217.58480 536.00000 -300.78525 0 670.20 0 271.92050   7.19297  3380.69469  5126.36969 103424.4620
 1154.8 6218.91930 536.00000 -309.57480 0 660.45 0 255.62781   6.24259  2934.01657  5120.17771 100072.6590
 1154.6 6220.24200 536.00000 -289.71270 0 674.90 0 256.29366   6.30735  2964.45412  4922.50070  92908.2993
 1154.4 6221.62335 526.00000 -309.68895 0 678.05 0 254.25415   6.61158  3107.44133  5015.29047  90129.5419
 1154.2 6222.97025 529.33333 -295.64850 0 666.10 0 253.57013   6.12108  2876.90537  4886.51139  93129.7380
 1154.0 6224.29630 539.66667 -304.55220 0 663.90 0 254.65420   6.11064  2872.00086  5066.35476  97543.4292
 1153.8 6225.63940 547.00000 -282.40710 0 702.20 0 260.98024   6.81025  3200.81667  4768.80549  89560.2784
 1153.6 6227.01120 547.00000 -283.54860 0 661.15 0 270.37812   6.87603  3231.73570  4564.47130  85362.2228
 1153.4 6228.33140 536.00000 -291.65325 0 656.05 0 276.90092   7.13346  3352.72405  4376.82005  85196.3594
 1153.2 6229.64570 531.00000 -288.57120 0 674.80 0 278.81388   7.16061  3365.48859  4569.74959  90616.6171
 1153.0 6231.00225 526.00000 -269.85060 0 675.80 0 272.64531   6.67316  3136.38387  5437.27283  97543.0450
 1152.8 6232.36950 526.00000 -298.61640 0 668.15 0 265.93166   6.21044  2918.90557  7007.54768 108953.1110
 1152.6 6233.69940 536.00000 -339.36795 0 666.20 0 261.18031   6.22983  2928.01789  8712.04215 125634.5340
 1152.4 6235.04685 536.00000 -299.41545 0 679.75 0 253.13737   5.92665  2785.52637  8514.38380 124565.1990
 1152.2 6236.40090 536.00000 -286.40235 0 691.25 0 247.84115   8.10203  3807.95248  8463.27818 120055.4440
 1152.0 6237.75705 536.00000 -284.11935 0 661.80 0 246.14866   9.13139  4291.75492  7842.77383 117746.5390
 1151.8 6239.08740 536.00000 -275.10150 0 680.20 0 240.80075   7.36392  3461.04413  7076.74432 115543.7710
 1151.6 6240.44675 526.00000 -315.51060 0 672.10 0 240.79854   6.42139  3018.05267  6978.23546 119322.8690
 1151.4 6241.78300 526.00000 -335.25855 0 659.70 0 239.57655   5.82385  2737.21064  8059.04530 121710.3210
 1151.2 6243.12115 531.00000 -301.81260 0 664.20 0 238.77687   6.06456  2850.34290  7281.06898 118433.6750
 1151.0 6244.46750 536.00000 -303.41070 0 722.90 0 240.27343   5.57220  2618.93309  7336.81194 114873.1980
 1150.8 6245.88165 536.00000 -290.96835 0 668.95 0 241.51053   6.64009  3120.84241  7144.30277 113479.9060
 1150.6 6247.21220 536.00000 -286.17405 0 663.10 0 240.52827   6.82883  3209.55200  7630.22124 113174.1810
 1150.4 6248.57220 536.00000 -266.42610 0 679.40 0 240.83002   6.85258  3220.71194  7214.12243 113688.2950
 1150.2 6249.93080 526.00000 -285.94575 0 672.15 0 245.12793   7.26017  3412.27897  7672.89128 116705.2580
 1150.0 6251.29250 531.00000 -272.24775 0 707.35 0 247.23470   7.76280  3648.51713  6926.06558 114745.1230
 1149.8 6252.66495 536.00000 -296.56170 0 679.75 0 248.95072   6.18527  2907.07500  6938.32999 112536.5550
 1149.6 6254.05015 534.41667 -308.09085 0 671.50 0 251.30903   6.18258  2905.81388  6801.69234 107772.8630
 1149.4 6255.38630 528.50000 -297.01830 0 666.80 0 258.70068   6.15710  2893.83925  6161.30830 101945.2330
 1149.2 6256.71245 534.33333 -270.64965 0 656.55 0 267.47929   5.98491  2812.90560  5628.84356 104135.7320
 1149.0 6258.03940 536.00000 -290.74005 0 681.95 0 275.12313   7.75496  3644.83283  5435.56454 102178.7250
 1148.8 6259.39625 531.00000 -311.51535 0 689.00 0 270.35580   7.40153  3478.71853  5159.94200  98254.3253
 1148.6 6260.75410 526.00000 -322.35960 0 661.40 0 273.74194   7.28706  3424.91706  5294.06540  93717.5169
 1148.4 6262.08065 536.00000 -297.01830 0 683.45 0 278.86426   6.02995  2834.07840  5235.34112  92317.0727
 1148.2 6263.45060 536.00000 -312.54270 0 676.25 0 277.43245   6.06166  2848.98040  4679.50376  91257.0619
 1148.0 6264.81695 536.00000 -296.33340 0 666.65 0 269.35124   6.69201  3145.24251  4423.60057  90635.9672
 1147.8 6266.14720 536.00000 -312.77100 0 667.80 0 263.84385   6.35373  2986.25376  4438.75255  90361.0920
 1147.6 6267.49560 536.00000 -332.40480 0 684.25 0 263.02322   6.62809  3115.20357  4346.84369  91555.5024
 1147.4 6268.85510 536.00000 -294.05040 0 666.45 0 257.55665   7.10951  3341.46876  4256.69913  91116.0671
 1147.2 6270.18525 536.00000 -315.05400 0 683.85 0 253.34502   7.49354  3521.96246  4597.95329  95336.7512
 1147.0 6271.53870 536.00000 -315.28230 0 679.60 0 252.17162   7.21959  3393.20621  4647.06879  99676.2337
 1146.8 6272.89465 531.00000 -288.57120 0 671.10 0 254.83879   6.87724  3232.30086  5109.05044  99988.5851
 1146.6 6274.23635 526.00000 -319.84830 0 665.40 0 253.48583   7.91492  3720.01092  5111.02858  95330.3590
 1146.4 6275.58730 526.00000 -283.09200 0 676.00 0 251.74941   8.45496  3973.82890  5029.35250  92756.5689
 1146.2 6276.95120 526.00000 -297.70320 0 681.60 0 250.44579   7.41707  3486.02447  5154.31795  93107.4220
 1146.0 6278.30640 526.00000 -310.48800 0 671.05 0 255.19731   6.20920  2918.32271  5622.77835  99105.0253
 1145.8 6279.64135 531.00000 -319.84830 0 688.30 0 259.99414   6.15346  2892.12844  6261.78181 108226.6550
 1145.6 6281.00825 536.00000 -316.88040 1 687.45 0 261.24169   5.08297  2388.99688  7070.42652 118226.6380
 1145.4 6282.37620 536.00000 -269.85060 0 675.65 0 258.24866   4.89180  2299.14700  7356.20033 116554.7750
 1145.2 6283.72430 536.00000 -299.64375 0 655.30 0 255.91347   6.71220  3154.73423  6096.92158 106815.9820
 1145.0 6285.04200 536.00000 -331.14915 0 678.90 0 255.06138   6.79746  3194.80510  5274.49909  93022.0085
 1144.8 6286.42255 536.00000 -281.83635 0 672.35 0 275.73205   5.95289  2797.85671  5058.08570  80581.8626
 1144.6 6287.76200 536.00000 -290.28345 0 668.10 0 295.30444   5.68946  2674.04566  4550.86007  81306.7082
 1144.4 6289.09255 526.00000 -295.53435 0 663.55 0 320.67092   5.53451  2601.21921  3995.56177  86041.4957
 1144.2 6290.43410 526.00000 -292.33815 0 709.30 0 299.10212   5.91215  2778.71198  4360.12755  88182.0542
 1144.0 6291.82375 531.00000 -314.36910 0 669.30 0 286.07695   6.35801  2988.26506  4636.08786  84938.0984
 1143.8 6293.16045 536.00000 -301.01355 0 665.90 0 289.53240   6.23406  2930.00603  4194.64759  83707.5285
 1143.6 6294.49600 536.00000 -281.72220 0 678.50 0 287.05047   7.49405  3522.20301  3631.27908  80881.7470
 1143.4 6295.85420 536.00000 -266.42610 0 679.60 0 276.62435   7.55350  3550.14357  3709.65046  81175.5053
 1143.2 6297.22725 536.00000 -311.97195 0 664.00 0 267.79228   7.37252  3465.08280  4843.51884  93759.8847
 1143.0 6298.55600 531.00000 -299.41545 0 667.25 0 264.98953   6.32989  2975.04614  5912.80567 105104.4710
 1142.8 6299.90155 526.00000 -294.84945 0 678.55 0 261.54597   6.13554  2883.70186  6217.31392 110679.6580
 1142.6 6301.24675 526.00000 -303.52485 0 686.55 0 254.12336   5.57468  2620.09825  6076.14627 112336.5700
 1142.4 6302.60115 526.00000 -303.75315 0 686.55 0 246.22565   5.70143  2679.67127  6333.31361 112171.2700
 1142.2 6304.00435 526.00000 -307.40595 0 683.50 0 242.50825   4.92756  2315.95223  6211.44835 113697.4970
 1142.0 6305.36690 526.00000 -333.20385 0 671.40 0 240.88061   5.63106  2646.59626  6546.20781 116172.5620
 1141.8 6306.70635 526.00000 -283.77690 0 665.85 0 237.77086   6.37143  2994.57292  6373.35688 119125.0330
 1141.6 6308.03615 526.00000 -295.30605 0 694.70 0 237.95265   5.73884  2697.25363  6545.13694 115024.2360
 1141.4 6309.41265 526.00000 -275.44395 0 681.20 0 236.11670   6.40752  3011.53366  6540.38870  97777.1023
 1141.2 6310.76750 536.16667 -296.67585 0 668.90 0 234.66958   7.84246  3685.95805  4291.56766  81101.3325
 1141.0 6312.10070 543.33333 -278.86845 0 666.50 0 243.21109   9.11949  4286.16224  3541.33709  74169.4206
 1140.8 6313.46920 541.50000 -301.12770 0 683.10 0 262.74570   8.57553  4030.50062  3369.96049  74340.4776
