~Version Information Section
# This file generated by the LAST component (v1.2.08). Tver. R.E.A. 1999-2005
VERS. 2.0 : CWLS LOG ASCII STANDARD - VERSION 2.0"
WRAP. NO  :
~Well Information Section
STRT.M   2025.60 : Начальная Глубина
STOP.M   0700.00 : Конечная  Глубина
  STEP.M                          -0.2 : Шаг по Глубине
NULL.      -9999 : Признак "Нет данных"
DATE.  16.05.2024                                : Дата
TIME.  13:40:02 - 17:08:39                       : Время
~Curve Information Section
DEPT.M                   : Г Л У Б И Н А , м
TIME.S                   : В Р Е М Я , сек
SPID.M/H                 : Скорость м/ч
TENS.KG                  : Натяжение кабеля, кг
METKA.                   : =1 - Магнитная Метка
DTIME.MS                 : Интервальное Время,мс
MARKER.                  : Код маркера
CALI. MM                 : Поправленный Диаметр
GK.MKR                   : Cчет ГК
GK.IMP/M                 : Счет ГК  в имп/мин
NNKBZ.IMP/M              : Счет ННК БЗ в имп/мин
NNKMZ.IMP/M              : Счет ННК МЗ в имп/мин
~A Log data section
 2025.6    0.00000     -9999      -9999 0 450.00 0     -9999     -9999       -9999       -9999       -9999
 2025.4    0.00000     -9999      -9999 0 450.00 0     -9999     -9999       -9999       -9999       -9999
 2025.2    0.00000     -9999      -9999 0 450.00 0     -9999     -9999       -9999       -9999       -9999
 2025.0    0.00000     -9999      -9999 0 450.00 0     -9999     -9999       -9999       -9999       -9999
 2024.8    0.00000     -9999      -9999 0 450.00 0     -9999     -9999       -9999       -9999       -9999
 2024.6    0.00000     -9999      -9999 0 450.00 0     -9999     -9999       -9999       -9999       -9999
 2024.4    0.00000     -9999      -9999 0 450.00 0     -9999     -9999       -9999       -9999       -9999
 2024.2    0.00000     -9999      -9999 0 450.00 0     -9999     -9999       -9999       -9999       -9999
 2024.0    0.00000     -9999      -9999 0 450.00 0     -9999     -9999       -9999       -9999       -9999
 2023.8    0.00000     -9999      -9999 0 450.00 0     -9999     -9999       -9999       -9999       -9999
 2023.6    0.00000     -9999      -9999 0 450.00 0     -9999     -9999       -9999       -9999       -9999
 2023.4    0.00000     -9999      -9999 0 450.00 0     -9999     -9999       -9999       -9999       -9999
 2023.2    0.00000     -9999      -9999 0 450.00 0     -9999     -9999       -9999       -9999       -9999
 2023.0    0.00000     -9999      -9999 0 450.00 0     -9999     -9999       -9999       -9999       -9999
 2022.8    0.00000     -9999      -9999 0 450.00 0     -9999     -9999       -9999       -9999       -9999
 2022.6    0.00000     -9999      -9999 0 450.00 0     -9999     -9999       -9999       -9999       -9999
 2022.4    0.00000     -9999      -9999 0 450.00 0     -9999     -9999       -9999       -9999       -9999
 2022.2    0.00000     -9999      -9999 0 450.00 0     -9999     -9999       -9999       -9999       -9999
 2022.0    0.00000     -9999      -9999 0 450.00 0     -9999     -9999       -9999       -9999       -9999
 2021.8    0.00000     -9999      -9999 0 450.00 0     -9999     -9999       -9999       -9999       -9999
 2021.6    0.00000     -9999      -9999 0 450.00 0     -9999     -9999       -9999       -9999       -9999
 2021.4    0.00000     -9999      -9999 0 450.00 0     -9999     -9999       -9999       -9999       -9999
 2021.2    0.00000     -9999      -9999 0 450.00 0     -9999     -9999       -9999       -9999       -9999
 2021.0    0.00000     -9999      -9999 0 450.00 0     -9999     -9999       -9999       -9999       -9999
 2020.8    0.00000     -9999      -9999 0 450.00 0     -9999     -9999       -9999       -9999       -9999
 2020.6    0.00000     -9999      -9999 0 450.00 0     -9999     -9999       -9999       -9999       -9999
 2020.4    0.00000     -9999      -9999 0 450.00 0     -9999     -9999       -9999       -9999       -9999
 2020.2    0.00000     -9999      -9999 0 450.00 0     -9999     -9999       -9999       -9999       -9999
 2020.0    0.00000     -9999      -9999 0 450.00 0     -9999     -9999       -9999       -9999       -9999
 2019.8    0.00000     -9999      -9999 0 450.00 0     -9999     -9999       -9999       -9999       -9999
 2019.6    0.00000     -9999      -9999 0 450.00 0     -9999     -9999       -9999       -9999 157957.7850
 2019.4    0.00000     -9999      -9999 0 450.00 0     -9999     -9999       -9999 29997.93670 126450.2810
 2019.2    0.00000     -9999      -9999 0 450.00 0     -9999     -9999       -9999  8505.27517 126320.9900
 2019.0    0.00000     -9999      -9999 0 450.00 0     -9999     -9999       -9999  8761.88533 123583.3510
 2018.8    0.00000     -9999      -9999 0 450.00 0     -9999     -9999       -9999  8330.49880 125850.5120
 2018.6    0.00000     -9999      -9999 0 450.00 0     -9999     -9999       -9999  8535.49947 124824.1690
 2018.4    0.00000     -9999      -9999 0 450.00 0     -9999     -9999       -9999  8764.00115 125174.4030
 2018.2    0.00000     -9999      -9999 0 450.00 0     -9999     -9999       -9999  9189.00186 126266.3810
 2018.0    0.00000     -9999      -9999 0 450.00 0     -9999  10.04424  4720.79491  8297.58405 126509.2150
 2017.8    0.00000     -9999      -9999 0 450.00 0     -9999  12.19078  5729.66639  8185.38046 126492.7460
 2017.6    0.00000     -9999      -9999 0 450.00 0     -9999  13.36724  6282.60439  7694.14852 126934.6560
 2017.4    0.00000     -9999      -9999 0 450.00 0 133.95089  13.63178  6406.93741  8113.17418 128152.5620
 2017.2    0.00000     -9999      -9999 0 450.00 0 134.52320  12.96606  6094.04864  8357.45320 125067.1290
 2017.0    0.00000     -9999      -9999 0 450.00 0 134.62095  13.19761  6202.87791  7584.34769 125013.8880
 2016.8    0.00000     -9999      -9999 0 450.00 0 134.70277  13.77113  6472.43168  7471.73117 124288.6180
 2016.6    0.00000     -9999      -9999 0 450.00 0 134.81007  13.20049  6204.23204  7678.91720 124587.3410
 2016.4    0.00000     -9999      -9999 0 450.00 0 134.90086  11.56390  5435.03354  8115.03765 127222.0640
 2016.2    0.00000     -9999      -9999 0 450.00 0 134.98678  13.01061  6114.98558  8390.25614 123611.0390
 2016.0    0.00000     -9999      -9999 0 450.00 0 135.06998  12.60500  5924.34949  8579.73153 125106.5810
 2015.8    0.00000     -9999      -9999 0 450.00 0 135.15026  11.99231  5636.38681  8023.85336 128663.2220
 2015.6    0.00000     -9999      -9999 0 450.00 0 135.21913  11.85795  5573.23691  8093.31310 127759.2390
 2015.4    0.00000     -9999      -9999 0 450.00 0 135.30053  12.76482  5999.46691  8205.90768 126178.1850
 2015.2    0.00000     -9999      -9999 0 450.00 0 135.39102  12.11132  5692.32085  7904.67594 127096.2200
 2015.0    0.00000     -9999      -9999 0 450.00 0 135.44777  12.41231  5833.78600  8465.36626 125264.7130
 2014.8    0.00000     -9999      -9999 0 450.00 0 135.53914  12.73633  5986.07562  8287.34463 129160.0280
 2014.6    0.00000     -9999      -9999 0 450.00 0 135.60178  11.99997  5639.98448  8395.23827 140882.2870
 2014.4    0.00000     -9999      -9999 0 450.00 0 135.67435  11.80110  5546.51735 10074.78020 147553.5070
 2014.2    0.00000     -9999      -9999 0 450.00 0 135.73666  14.12428  6638.41015 10408.22540 146212.8940
 2014.0    0.00000     -9999      -9999 0 450.00 0 135.84179  14.21252  6679.88244 10774.35750 144718.7650
 2013.8    0.00000     -9999      -9999 0 450.00 0 135.97407  13.87916  6523.20343 10216.83850 143844.2270
 2013.6    0.00000     -9999      -9999 0 450.00 0 136.09864  11.84115  5565.34144 10523.96100 142120.7900
 2013.4    0.00000     -9999      -9999 0 450.00 0 136.25074  11.75295  5523.88440 10711.49450 145234.1200
 2013.2    0.00000     -9999      -9999 0 450.00 0 136.49080  12.03903  5658.34340 11347.05680 153328.6870
 2013.0    0.00000     -9999      -9999 0 450.00 0 136.28778  12.15064  5710.80207 11028.83160 156232.2070
 2012.8    0.00000     -9999      -9999 0 450.00 0 132.20732  11.62060  5461.68178 11152.13700 157219.3200
 2012.6    0.00000     -9999      -9999 0 450.00 0 128.41565  12.00121  5640.56663 11877.55700 165193.1850
 2012.4    0.00000     -9999      -9999 0 450.00 0 128.34895  12.38732  5822.03919 12271.21190 166581.8960
 2012.2    0.00000     -9999      -9999 0 450.00 0 135.97344  12.40198  5828.93117 12234.35680 161916.4650
 2012.0    0.00000     -9999      -9999 0 450.00 0 147.17943  12.42852  5841.40352 12580.01890 158029.1460
 2011.8    0.00000     -9999      -9999 0 450.00 0 176.90415  13.11033  6161.85299 11951.46130 149746.3970
 2011.6    0.00000     -9999      -9999 0 450.00 0 199.13680  12.56459  5905.35620 10048.27770 135646.7360
 2011.4    0.00000     -9999      -9999 0 450.00 0 213.62808  12.33830  5799.00325  8711.24370 119165.0100
 2011.2    0.00000     -9999      -9999 0 450.00 0 241.95879  10.54291  4955.16709  7659.18279 113887.1170
 2011.0    0.00000     -9999      -9999 0 450.00 0 242.01151  11.91704  5601.00825  6910.70549 111383.5470
 2010.8    0.00000     -9999      -9999 0 450.00 0 243.13050  12.26463  5764.37493  6200.60708 105373.5750
