~Version Information Section
# This file generated by the LAST component (v1.2.08). Tver. R.E.A. 1999-2005
VERS. 2.0 : CWLS LOG ASCII STANDARD - VERSION 2.0"
WRAP. NO  :
~Well Information Section
STRT.M   2025.60 : Начальная Глубина
STOP.M   0700.00 : Конечная  Глубина
  STEP.M                          -0.2 : Шаг по Глубине
NULL.      -9999 : Признак "Нет данных"
DATE.  16.05.2024                                : Дата
TIME.  13:40:02 - 17:08:39                       : Время
~Curve Information Section
DEPT.M                   : Г Л У Б И Н А , м
TIME.S                   : В Р Е М Я , сек
SPID.M/H                 : Скорость м/ч
TENS.KG                  : Натяжение кабеля, кг
METKA.                   : =1 - Магнитная Метка
DTIME.MS                 : Интервальное Время,мс
MARKER.                  : Код маркера
CALI. MM                 : Поправленный Диаметр
GK.MKR                   : Cчет ГК
GK.IMP/M                 : Счет ГК  в имп/мин
NNKBZ.IMP/M              : Счет ННК БЗ в имп/мин
NNKMZ.IMP/M              : Счет ННК МЗ в имп/мин
~A Log data section
# ...
 1245.6 5606.12580 536.00000 -297.70320 0 682.95 0 231.48747   8.02178  3770.23452  4509.18384  91317.5312
 1245.4 5607.48280 536.00000 -312.31440 0 670.25 0 233.13042   7.73094  3633.54319  4560.97255  88986.0102
 1245.2 5608.81785 536.00000 -302.15505 0 662.35 0 234.73826   7.28645  3424.63229  4428.61148  89272.7218
 1245.0 5610.17530 531.00000 -298.27395 0 683.95 0 236.62341   7.28255  3422.79909  4873.91597  95631.8279
 1244.8 5611.53950 526.00000 -315.28230 0 670.40 0 234.71257   6.94654  3264.87507  5125.81410 105596.5970
 1244.6 5612.87790 526.00000 -286.17405 0 665.00 0 231.40403   7.14414  3357.74791  6010.69661 114227.0400
 1244.4 5614.20570 526.00000 -306.72105 0 671.00 0 229.57162   7.51895  3533.90709  8419.49928 132612.6940
 1244.2 5615.55780 531.00000 -316.19550 0 703.25 0 232.59436   6.97475  3278.13185 11374.83480 147219.1420
 1244.0 5616.97445 536.00000 -288.45705 0 684.30 0 232.60750   5.98798  2814.35210 11695.24390 137873.9560
 1243.8 5618.32040 536.00000 -302.15505 0 663.55 0 231.50827   6.07169  2853.69491 10132.05800 126302.3300
 1243.6 5619.65875 536.00000 -291.53910 0 685.45 0 235.24906   6.59854  3101.31582  9024.09955 117575.8880
 1243.4 5621.02390 536.00000 -291.76740 0 693.75 0 233.77167   7.12670  3349.55014  7390.18630 110908.7200
 1243.2 5622.38990 536.00000 -304.55220 0 663.30 0 234.25285   7.37433  3465.93742  5485.87319 102202.6400
 1243.0 5623.71615 531.00000 -277.49865 0 677.50 0 231.73415   6.73161  3163.85538  5550.53958 101272.3370
 1242.8 5625.07625 529.33333 -276.69960 0 677.40 0 229.43714   6.25513  2939.90970  5539.14869 102927.8080
 1242.6 5626.44610 534.50000 -305.12295 0 668.15 0 228.88486   5.84506  2747.17894  4923.78069  99116.0666
 1242.4 5627.77615 536.00000 -326.12655 0 666.25 0 234.07644   7.08662  3330.71112  5858.19610  96892.6979
 1242.2 5629.12680 536.00000 -289.59855 0 684.05 0 241.02729   7.47502  3513.25793  6573.74311 107295.5770
 1242.0 5630.48175 536.00000 -303.06825 0 661.15 0 238.19620   8.52537  4006.92358  6503.09733 108511.5120
 1241.8 5631.80250 536.00000 -321.21810 0 677.95 0 240.95976   7.50066  3525.31214  6117.99433  98929.5403
 1241.6 5633.14185 536.00000 -304.20975 0 681.90 0 252.33887   6.86135  3224.83585  5095.22527  91968.6987
 1241.4 5634.50555 536.00000 -319.27755 0 669.85 0 260.82849   7.07959  3327.40886  4755.51910  90110.6255
 1241.2 5635.84155 536.00000 -299.30130 0 667.95 0 258.66390   7.81109  3671.21367  5482.61239  85380.2055
 1241.0 5637.19550 531.00000 -309.34650 0 665.75 0 260.64783   8.41566  3955.36015  4814.01098  81562.5902
 1240.8 5638.54270 526.00000 -305.69370 0 685.10 0 273.26318   8.04148  3779.49780  4385.46707  85579.7884
 1240.6 5639.90205 536.16667 -304.09560 0 664.25 0 275.47134   7.99659  3758.39898  4277.65001  89012.7352
 1240.4 5641.23080 543.33333 -299.41545 0 661.00 0 273.88024   7.35812  3458.31592  4469.13886  88985.8637
 1240.2 5642.56165 541.50000 -307.40595 0 710.35 0 273.37488   6.34574  2982.49743  5061.75306  95209.8437
 1240.0 5643.99995 536.00000 -310.25970 0 695.15 0 268.73887   7.04882  3312.94447  5795.65395 111607.1980
 1239.8 5645.35585 531.00000 -292.22400 0 654.10 0 263.16373   7.28940  3426.01967  6765.66159 110753.9760
 1239.6 5646.67045 526.00000 -310.60215 0 676.65 0 255.72956   6.05779  2847.16261  6291.14311 101307.5130
 1239.4 5648.02735 526.00000 -321.21810 0 690.50 0 251.35540   6.62749  3114.92191  5740.14686  99781.7723
 1239.2 5649.38635 536.00000 -287.77215 0 673.05 0 247.15602   6.67133  3135.52562  5437.22174 105543.9640
 1239.0 5650.72195 536.00000 -310.14555 0 662.35 0 245.61923   7.59413  3569.24280  7014.22878 121069.0750
 1238.8 5652.06280 536.00000 -305.35125 0 683.75 0 237.60434   7.12605  3349.24528  7948.86431 124293.6850
 1238.6 5653.42265 536.00000 -315.62475 0 666.35 0 232.50530   6.47237  3042.01156  7042.43162 123190.3230
 1238.4 5654.77840 536.00000 -282.29295 0 664.90 0 231.57182   6.48252  3046.78659  7506.77551 114182.6990
 1238.2 5656.10620 536.00000 -329.89350 0 673.95 0 230.76752   6.42068  3017.72058  7097.68009 109278.5570
 1238.0 5657.46425 536.00000 -308.66160 0 678.45 0 232.65645   6.89409  3240.22355  5907.70285 109394.7190
 1237.8 5658.81210 536.00000 -307.40595 0 690.60 0 232.28059   8.05147  3784.18929  6189.92483 115790.5410
 1237.6 5660.15970 536.00000 -308.09085 0 657.55 0 229.86476   7.20332  3385.55841  7353.79215 117582.5250
 1237.4 5661.49175 536.00000 -318.93510 0 676.80 0 228.58561   6.77560  3184.53312  7373.16493 117518.9810
 1237.2 5662.84030 536.00000 -279.66750 0 666.30 0 227.06439   7.35708  3457.82712  7472.07700 116262.2590
 1237.0 5664.19450 536.00000 -322.01715 0 663.65 0 227.04151   7.21750  3392.22404  7413.58735 118895.7290
 1236.8 5665.52700 531.00000 -330.57840 0 679.80 0 228.55268   7.21255  3389.90061  7756.22726 122993.9810
 1236.6 5666.88950 526.00000 -306.03615 0 675.60 0 227.83276   7.12647  3349.43891  8322.48064 116337.4440
 1236.4 5668.23175 526.00000 -292.22400 0 668.45 0 226.02970   6.05482  2845.76529  7532.68128 104080.0970
 1236.2 5669.56460 547.00000 -322.47375 0 690.25 0 225.96856   5.58471  2624.81315  6196.05888  97762.2211
 1236.0 5670.93355 547.00000 -309.57480 0 679.50 0 226.69475   6.31515  2968.12151  5665.62834  97658.3070
 1235.8 5672.28545 536.50000 -323.04450 0 666.50 0 227.58562   5.88574  2766.29596  5455.93748 101027.3020
 1235.6 5673.61590 526.00000 -301.24185 0 661.10 0 227.02427   5.05558  2376.12212  5633.45038 101340.8840
 1235.4 5674.96590 526.00000 -293.93625 0 673.15 0 227.15224   5.59633  2630.27603  5449.09071 100840.2410
 1235.2 5676.31340 536.00000 -304.78050 0 670.60 0 227.30745   6.75464  3174.68022  5112.25045  98616.9488
 1235.0 5677.65175 536.00000 -316.30965 0 662.15 0 227.52275   6.98568  3283.27069  5044.21453  95533.7840
 1234.8 5678.97775 531.00000 -302.49750 0 677.95 0 228.32647   6.36225  2990.25752  5365.60067  95509.5679
 1234.6 5680.33675 526.00000 -310.83045 0 698.85 0 229.56061   6.48121  3046.16894  5751.47761  99688.2469
 1234.4 5681.70680 526.00000 -294.39285 0 666.90 0 228.16062   7.04700  3312.09067  5578.42500  98258.4877
 1234.2 5683.03460 536.00000 -307.06350 0 662.55 0 227.67717   5.74245  2698.95253  5913.72751  99344.5466
 1234.0 5684.37285 536.00000 -320.19075 0 702.80 0 230.54571   5.11481  2403.96189  6338.12841 101503.2220
 1233.8 5685.79610 536.00000 -293.93625 0 692.75 0 231.72416   5.70051  2679.23927  5437.92444  97422.3072
 1233.6 5687.15815 536.00000 -306.83520 0 661.55 0 232.10852   5.20359  2445.68911  5052.29373  94589.1021
 1233.4 5688.48170 536.00000 -298.27395 0 677.70 0 235.10557   5.97499  2808.24729  4855.74266  91660.9013
 1233.2 5689.83735 526.00000 -338.91135 0 664.30 0 237.90585   7.03383  3305.89786  4510.12512  91323.5613
 1233.0 5691.16025 529.33333 -318.70680 0 662.70 0 240.89086   7.39456  3475.44227  4852.03401  89541.9056
 1232.8 5692.50540 539.66667 -319.04925 0 664.60 0 249.12863   6.55986  3083.13620  4770.09851  89441.6945
 1232.6 5693.85015 543.33333 -293.02305 0 682.60 0 251.30778   6.78944  3191.03612  4637.87917  92321.3740
 1232.4 5695.20670 538.00000 -314.14080 0 666.65 0 254.06411   7.02070  3299.72724  4513.17104  91006.6386
 1232.2 5696.53895 536.00000 -299.41545 0 684.90 0 263.88193   6.78420  3188.57398  4788.95445  89199.0328
 1232.0 5697.89330 536.00000 -287.65800 0 681.20 0 268.38506   7.52789  3538.10989  5237.12618  87711.0592
 1231.8 5699.25470 531.00000 -291.42495 0 673.90 0 269.83939   7.21544  3391.25840  5221.06438  93799.5922
 1231.6 5700.59700 529.33333 -286.17405 0 663.20 0 272.08140   6.64426  3122.80066  4940.44447  98405.8758
 1231.4 5701.94375 534.50000 -303.41070 0 672.10 0 268.83662   6.96676  3274.37603  4879.91990  94867.5395
 1231.2 5703.29720 536.00000 -313.79835 0 674.10 0 274.31436   6.51841  3063.65271  4851.16179  93380.9585
 1231.0 5704.63325 536.00000 -295.99095 0 658.90 0 278.46952   5.47716  2574.26424  5564.06230  95380.2905
 1230.8 5705.95015 536.00000 -279.21090 0 658.95 0 282.77152   6.21327  2920.23493  5490.25556  95839.0514
