~Version Information Section
# This file generated by the LAST component (v1.2.08). Tver. R.E.A. 1999-2005
VERS. 2.0 : CWLS LOG ASCII STANDARD - VERSION 2.0"
WRAP. NO  :
~Well Information Section
STRT.M   2025.60 : Начальная Глубина
STOP.M   0700.00 : Конечная  Глубина
  STEP.M                          -0.2 : Шаг по Глубине
NULL.      -9999 : Признак "Нет данных"
DATE.  16.05.2024                                : Дата
TIME.  13:40:02 - 17:08:39                       : Время
~Curve Information Section
DEPT.M                   : Г Л У Б И Н А , м
TIME.S                   : В Р Е М Я , сек
SPID.M/H                 : Скорость м/ч
TENS.KG                  : Натяжение кабеля, кг
METKA.                   : =1 - Магнитная Метка
DTIME.MS                 : Интервальное Время,мс
MARKER.                  : Код маркера
CALI. MM                 : Поправленный Диаметр
GK.MKR                   : Cчет ГК
GK.IMP/M                 : Счет ГК  в имп/мин
NNKBZ.IMP/M              : Счет ННК БЗ в имп/мин
NNKMZ.IMP/M              : Счет ННК МЗ в имп/мин
~A Log data section
# ...
 1770.6 1835.15045 472.00000 -306.60690 0 777.00 0 249.53279  11.25855  5291.51724  6139.95089 111899.3740
 1770.4 1836.67260 472.00000 -292.33815 0 741.85 0 242.43358  10.05007  4723.53328  6092.49146 113945.5860
 1770.2 1838.16725 472.00000 -293.25135 0 767.60 0 241.57428  10.75727  5055.91782  6262.61002 108489.3070
 1770.0 1839.75045 471.08333 -297.13245 0 780.75 0 243.14166  11.33722  5328.49342  6016.84301 109685.8880
 1769.8 1841.28395 473.83333 -290.85420 0 746.30 0 242.40032  10.13938  4765.51055  7156.90691 111498.1100
 1769.6 1842.77625 472.00000 -288.11460 0 788.60 0 240.29599   9.67557  4547.51831  6994.59729 109075.9090
 1769.4 1844.33770 472.00000 -305.12295 0 761.85 0 240.53089   9.88080  4643.97414  6246.57625 107133.6310
 1769.2 1845.84770 472.00000 -307.40595 0 747.45 0 240.51948   9.97512  4688.30411  5888.64868 106526.5150
 1769.0 1847.34370 483.00000 -299.64375 0 753.00 0 240.17523   9.84572  4627.48779  5610.17049 104953.0900
 1768.8 1848.88960 483.00000 -294.05040 0 769.65 0 239.52621  10.31944  4850.13735  5722.97218 105785.2960
 1768.6 1850.42140 472.00000 -317.79360 0 755.05 0 239.44851  11.01315  5176.18270  5874.27154 106604.1820
 1768.4 1851.92535 472.00000 -315.16815 0 738.75 0 239.15371  10.58293  4973.97661  5772.43647 107138.2420
 1768.2 1853.40875 472.00000 -318.13605 0 789.85 0 238.59143   9.73558  4575.72250  5800.39207 108614.9980
 1768.0 1854.96295 472.00000 -294.05040 0 756.60 0 237.30356  10.35935  4868.89470  6325.09079 108790.3730
 1767.8 1856.47240 472.00000 -293.82210 0 754.80 0 238.59031   9.89492  4650.61014  6298.79674 107178.9940
 1767.6 1857.97490 472.00000 -308.31915 0 749.90 0 236.81063   9.04331  4250.35340  5808.13155 105557.5480
 1767.4 1859.49055 472.00000 -281.26560 0 770.30 0 236.45945   9.21536  4331.21776  6202.39074 103630.7400
 1767.2 1861.04760 472.00000 -295.30605 0 747.95 0 236.29252  10.10968  4751.54780  6149.32223 105654.3440
 1767.0 1862.54380 483.00000 -278.64015 0 747.35 0 235.92409  10.96774  5154.83628  6251.46756 103475.6600
 1766.8 1864.04430 483.00000 -309.11820 0 764.70 0 235.36530   9.53791  4482.81643  6618.63776 103890.8300
 1766.6 1865.57470 472.00000 -288.11460 0 785.05 0 234.71406   9.58364  4504.31177  6234.78519 105566.6060
 1766.4 1867.10735 472.00000 -288.34290 0 740.95 0 234.43537   9.41101  4423.17671  5883.05886 102754.9460
 1766.2 1868.59265 472.00000 -303.86730 0 755.55 0 234.03125  10.14137  4766.44321  5458.88032 106192.6040
 1766.0 1870.11725 472.00000 -302.83995 0 773.10 0 234.88564   9.79907  4605.56125  6080.33568 106453.4420
 1765.8 1871.64980 472.00000 -301.47015 0 745.10 0 233.89439  10.13102  4761.58128  5893.46448 105155.8960
 1765.6 1873.16715 472.00000 -309.46065 0 753.00 0 234.15983   9.81547  4613.26977  6261.75194 103806.0750
 1765.4 1874.68175 472.00000 -286.17405 0 765.50 0 234.57034   9.63235  4527.20620  5861.40920 101400.8820
 1765.2 1876.20865 472.00000 -297.47490 0 756.45 0 235.14354   9.40894  4422.20219  5832.24921 103592.9150
 1765.0 1877.71870 472.00000 -306.03615 0 774.25 0 244.64846  10.55853  4962.50811  5486.59678 101247.0540
 1764.8 1879.24105 472.00000 -317.67945 0 759.90 0 238.91027  10.41533  4895.20671  5334.39097  99445.8599
 1764.6 1880.76615 472.00000 -290.74005 0 758.20 0 236.79899  11.02461  5181.56800  5084.18910 102261.0290
 1764.4 1882.27460 472.00000 -285.03255 0 747.25 0 235.95061  10.20780  4797.66766  5288.50142 103123.3740
 1764.2 1883.76365 472.00000 -308.31915 0 751.90 0 237.97488  10.36393  4871.04731  5485.11314 102835.5820
 1764.0 1885.30995 472.00000 -286.05990 0 766.35 0 237.07281  11.28554  5304.20362  6041.84188 102070.2420
 1763.8 1886.84690 472.00000 -303.06825 0 761.35 0 234.87266  11.49579  5403.02143  6163.25529 103615.4590
 1763.6 1888.34800 472.00000 -296.10510 0 740.60 0 232.70140  12.14953  5710.27769  5208.61862 102138.4720
 1763.4 1889.84355 472.00000 -298.38810 0 791.20 0 230.54357  13.64443  6412.88142  5209.52425  97391.6699
 1763.2 1891.39985 472.00000 -308.88990 0 762.90 0 225.98881  11.06696  5201.47191  5241.45452  94827.0792
 1763.0 1892.92350 472.00000 -316.99455 0 756.10 0 225.26649   9.10370  4278.73996  4683.84718  92044.5543
 1762.8 1894.42130 472.00000 -296.44755 0 743.70 0 224.97432   8.61641  4049.71079  4753.43331  95880.5417
 1762.6 1895.92840 472.00000 -281.95050 0 766.85 0 227.66805   8.28834  3895.51825  5018.97104  99625.3749
 1762.4 1897.47545 472.00000 -295.07775 0 741.35 0 226.66977   8.68801  4083.36460  5867.26410 107393.7670
 1762.2 1898.96465 483.00000 -310.94460 0 753.55 0 227.76504   9.95022  4676.60220  6228.63852 112915.4990
 1762.0 1900.47255 483.00000 -272.93265 0 762.50 0 232.89181  10.18944  4789.03781  5862.41989 105392.1370
 1761.8 1901.99835 483.00000 -288.79950 0 787.55 0 232.42490   9.81561  4613.33675  6383.70289 105023.4870
 1761.6 1903.54445 483.00000 -309.68895 0 754.25 0 234.74145  10.26316  4823.68330  6115.61887 106413.3870
 1761.4 1905.03755 483.00000 -297.47490 0 743.45 0 235.86580  10.22388  4805.22585  5993.27989 102270.2310
 1761.2 1906.55560 483.00000 -293.13720 0 774.75 0 237.53520   9.66465  4542.38493  5198.53446 101484.7690
 1761.0 1908.08420 472.00000 -294.39285 0 743.65 0 237.76068   8.89937  4182.70348  5845.10909 101872.0800
 1760.8 1909.59985 472.00000 -293.59380 0 750.00 0 237.36601  10.37041  4874.09065  5527.38545 102994.5420
 1760.6 1911.10555 472.00000 -291.42495 0 757.30 0 236.28793   9.84135  4625.43453  5886.75901 102253.4310
 1760.4 1912.61350 472.00000 -303.98145 0 748.95 0 236.19948   9.61313  4518.17208  6216.63749 104639.5010
 1760.2 1914.11630 483.00000 -297.24660 0 772.70 0 237.38813   9.78241  4597.73078  5887.69846 103954.0720
 1760.0 1915.68345 483.00000 -295.30605 0 787.25 0 236.73118   9.09923  4276.63586  5766.03180 103706.3970
 1759.8 1917.24030 477.50000 -308.43330 0 756.40 0 237.19549   9.83023  4620.20865  5869.64934 101397.6550
 1759.6 1918.74525 472.00000 -306.03615 0 750.50 0 237.37696  10.77434  5063.94196  4767.78404  96973.4045
 1759.4 1920.23925 472.00000 -290.16930 0 769.30 0 253.22488  11.16608  5248.05958  4059.50721  89493.5562
 1759.2 1921.76880 472.00000 -283.20615 0 769.65 0 272.83293  10.89322  5119.81266  3442.15999  78355.3752
 1759.0 1923.29995 472.00000 -289.71270 0 752.55 0 316.28571  11.12584  5229.14472  3049.37944  67678.6846
 1758.8 1924.80205 472.00000 -301.12770 0 738.65 0 323.76846  10.25671  4820.65410  3411.12479  69645.4459
 1758.6 1926.28125 472.00000 -292.68060 0 755.90 0 290.77475  10.17530  4782.39185  3744.63914  80051.6226
 1758.4 1927.82340 483.00000 -282.40710 0 757.60 0 251.48483   9.57820  4501.75335  4298.47138  87884.1081
 1758.2 1929.33580 483.00000 -286.85895 0 752.75 0 256.58140  10.45450  4913.61584  4651.09329  89638.2381
 1758.0 1930.83230 472.00000 -298.84470 0 748.50 0 251.68912  10.92657  5135.48767  4740.88458  91550.4089
 1757.8 1932.34405 472.00000 -308.09085 0 790.70 0 242.16895  10.82827  5089.28890  4897.21435  96461.0837
 1757.6 1933.89255 477.50000 -286.74480 0 749.70 0 239.18779  10.80309  5077.45237  5189.90018 100014.7720
 1757.4 1935.38690 483.00000 -307.29180 0 740.10 0 237.03079  11.85860  5573.54193  5052.90523 102396.7330
 1757.2 1936.87940 472.00000 -302.26920 0 767.55 0 235.96267  10.48800  4929.36065  5699.48483 101391.2180
 1757.0 1938.41195 466.50000 -323.38695 0 757.15 0 235.12790  10.59221  4978.33642  5591.87217 103606.0800
 1756.8 1939.94610 472.00000 -301.12770 0 746.35 0 232.93654  12.53143  5889.77315  5204.60831 101575.1500
 1756.6 1941.43265 472.00000 -303.75315 0 746.80 0 240.40425  14.28810  6715.40847  5302.09850  99162.1373
 1756.4 1942.94175 483.00000 -300.67110 0 763.60 0 244.20398  11.61061  5456.98737  4891.66842  91402.4167
 1756.2 1944.46120 472.00000 -293.47965 0 775.10 0 247.23753   9.47574  4453.59934  4290.19892  87173.4129
 1756.0 1945.97845 472.00000 -289.37025 0 742.55 0 252.22890   7.39611  3476.16938  3834.61016  81378.3958
 1755.8 1947.47470 472.00000 -279.78165 0 763.85 0 259.93863   7.09677  3335.48360  3577.15766  79018.7248
