~Version Information Section
# This file generated by the LAST component (v1.2.08). Tver. R.E.A. 1999-2005
VERS. 2.0 : CWLS LOG ASCII STANDARD - VERSION 2.0"
WRAP. NO  :
~Well Information Section
STRT.M   2025.60 : Начальная Глубина
STOP.M   0700.00 : Конечная  Глубина
  STEP.M                          -0.2 : Шаг по Глубине
NULL.      -9999 : Признак "Нет данных"
DATE.  16.05.2024                                : Дата
TIME.  13:40:02 - 17:08:39                       : Время
~Curve Information Section
DEPT.M                   : Г Л У Б И Н А , м
TIME.S                   : В Р Е М Я , сек
SPID.M/H                 : Скорость м/ч
TENS.KG                  : Натяжение кабеля, кг
METKA.                   : =1 - Магнитная Метка
DTIME.MS                 : Интервальное Время,мс
MARKER.                  : Код маркера
CALI. MM                 : Поправленный Диаметр
GK.MKR                   : Cчет ГК
GK.IMP/M                 : Счет ГК  в имп/мин
NNKBZ.IMP/M              : Счет ННК БЗ в имп/мин
NNKMZ.IMP/M              : Счет ННК МЗ в имп/мин
~A Log data section
# ...
 1500.6 3823.97420 504.00000 -281.72220 0 719.95 0 256.02256   9.02668  4242.54080  4223.93597  89656.3756
 1500.4 3825.43085 504.00000 -302.49750 0 708.85 0 259.40775   9.56691  4496.44754  4309.49860  86491.3435
 1500.2 3826.84215 504.00000 -281.60805 0 710.95 0 258.01207   9.77186  4592.77323  4002.78579  94796.4114
 1500.0 3828.30520 504.91667 -305.00880 0 770.90 0 253.11762   9.79389  4603.12903  4149.05522  96192.3582
 1499.8 3829.78675 500.66667 -288.22875 0 707.70 0 250.63721   9.83712  4623.44445  4978.14018  95980.7981
 1499.6 3831.22405 494.00000 -316.65210 0 702.25 0 247.56660   9.08725  4271.00763  5205.88762  97894.9918
 1499.4 3832.63680 504.16667 -290.85420 0 723.90 0 245.88327   9.17826  4313.78174  5081.96655  98747.9810
 1499.2 3834.08320 504.00000 -282.52125 0 708.65 0 245.18421   9.94367  4673.52315  5072.56501  98510.8438
 1499.0 3835.49395 504.00000 -298.15980 0 700.80 0 244.14562  10.15084  4770.89627  4785.67244  98406.0572
 1498.8 3836.89305 504.00000 -292.45230 0 736.75 0 244.94561   9.47936  4455.29860  4764.73503  97802.5479
 1498.6 3838.35475 504.00000 -310.14555 0 717.00 0 246.61839   9.51940  4474.11738  5030.03619  95341.5407
 1498.4 3839.78005 504.00000 -293.36550 0 705.70 0 251.53404   8.58519  4035.03960  5049.56245  97204.7653
 1498.2 3841.18860 504.00000 -299.52960 0 706.45 0 247.80064   9.15516  4302.92623  5034.90276 102087.1800
 1498.0 3842.63785 504.00000 -306.03615 0 721.90 0 247.16971   9.20280  4325.31785  5131.45931  99354.1229
 1497.8 3844.07740 504.00000 -313.11345 0 711.00 0 247.04560   8.97967  4220.44336  5487.02157  97330.0906
 1497.6 3845.49415 504.00000 -291.53910 0 701.50 0 249.39361  10.02499  4711.74611  5058.24805  94197.0258
 1497.4 3846.90325 504.91667 -288.00045 0 719.70 0 253.79755  12.11214  5692.70670  4865.58432  86826.3928
 1497.2 3848.34845 500.66667 -302.83995 0 743.90 0 261.29215   9.91092  4658.13144  4306.93446  85755.8637
 1497.0 3849.79575 494.00000 -286.17405 0 698.85 0 261.17025  10.38619  4881.50732  4265.57595  88431.3902
 1496.8 3851.19100 504.00000 -303.41070 0 700.70 0 258.36160   9.65683  4538.71118  4264.48755  90951.6968
 1496.6 3852.60880 504.00000 -295.53435 0 724.30 0 252.21073   9.29828  4370.19181  4727.17737  93607.8862
 1496.4 3854.07410 494.00000 -323.15865 0 707.65 0 247.31037   9.34409  4391.72303  4749.43331  98784.5737
 1496.2 3855.48895 499.00000 -289.14195 0 702.25 0 242.23246   9.67735  4548.35242  5059.29695 101591.8040
 1496.0 3856.89760 504.00000 -295.19190 1 723.55 0 240.48051  10.71572  5036.38722  4784.42456  99113.5707
 1495.8 3858.34715 504.00000 -302.83995 0 715.90 0 238.51883   9.99011  4695.35018  4990.94936  98313.7780
 1495.6 3859.77050 504.00000 -310.60215 0 730.65 0 237.57774  10.04224  4719.85082  5298.89505  98271.2974
 1495.4 3861.20395 504.00000 -294.73530 0 708.15 0 235.53227   9.33971  4389.66370  5301.84012  98430.1828
 1495.2 3862.63615 504.00000 -305.12295 0 723.90 0 233.53398   9.04938  4253.20813  5055.25265  94729.9516
 1495.0 3864.07085 504.00000 -326.24070 0 699.15 0 232.04482   9.03553  4246.69974  4559.36800  93309.1582
 1494.8 3865.48900 499.00000 -319.27755 0 698.10 0 232.93840   8.71856  4097.72452  4513.24590  94979.2278
 1494.6 3866.89755 494.00000 -298.27395 0 720.40 0 234.21846   9.02448  4241.50515  4641.58737  97489.6819
 1494.4 3868.33965 499.00000 -296.44755 0 716.25 0 233.12576  10.26336  4823.77796  4853.80817  92574.7593
 1494.2 3869.76260 504.00000 -288.57120 0 724.10 0 231.97349  10.31115  4846.24202  4581.28458  89870.6270
 1494.0 3871.23715 504.00000 -293.36550 0 739.90 0 232.68115   8.43415  3964.04986  3759.87466  93152.6457
 1493.8 3872.69695 504.00000 -313.22760 0 715.00 0 235.74047   9.42980  4432.00614  3825.58399  91621.6586
 1493.6 3874.12300 504.00000 -289.82685 0 705.85 0 242.27126  10.34070  4860.12705  4454.95223  89190.3084
 1493.4 3875.53035 504.00000 -299.52960 0 704.75 0 246.40636  10.27948  4831.35601  4361.62325  88328.9603
 1493.2 3876.95180 504.91667 -286.97310 0 748.70 0 242.74109  10.02589  4712.16808  3709.73526  90097.0958
 1493.0 3878.41890 500.66667 -307.86255 0 704.50 0 247.48777   9.64179  4531.64307  3764.83615  88019.4609
 1492.8 3879.82300 494.00000 -293.93625 0 695.00 0 251.74234  10.04608  4721.65701  4606.99426  90652.9833
 1492.6 3881.21995 504.00000 -300.44280 0 718.75 0 254.06581   9.73597  4575.90546  4817.74329  94454.1005
 1492.4 3882.68405 504.00000 -297.01830 0 715.25 0 252.81391   9.43272  4433.37824  4622.31117  95425.3297
 1492.2 3884.10845 504.00000 -311.17290 0 709.20 0 252.39380  10.04857  4722.82589  4626.76375  96606.5594
 1492.0 3885.52115 504.00000 -299.98620 0 702.55 0 253.27232   9.64574  4533.49932  5176.50506  96585.2811
 1491.8 3886.94055 504.00000 -294.73530 0 721.20 0 255.34860   9.97547  4688.47011  5503.32673  99757.5358
 1491.6 3888.37805 504.00000 -292.90890 0 734.20 0 252.26476   9.99125  4695.88699  5055.72391  98403.3224
 1491.4 3889.81890 504.00000 -278.86845 0 701.25 0 249.70337  10.53984  4953.72507  5401.61040  98530.4916
 1491.2 3891.22750 503.25000 -282.29295 0 728.05 0 252.91538  10.61229  4987.77748  5256.63166  95314.9535
 1491.0 3892.68255 504.00000 -309.11820 0 705.05 0 250.84084  11.27133  5297.52347  4385.86404  93035.4606
 1490.8 3894.10795 504.00000 -300.89940 0 698.95 0 250.28594  11.60987  5456.64120  3925.58063  92480.3440
 1490.6 3895.50275 504.00000 -295.19190 0 707.60 0 249.04342  11.85450  5571.61448  4424.26444  94377.6259
 1490.4 3896.92955 504.00000 -296.21925 0 718.65 0 246.53384  10.99507  5167.68339  4806.68534  96817.8277
 1490.2 3898.36300 504.00000 -272.01945 0 707.80 0 244.09423   9.87578  4641.61484  4559.45318  98549.2471
 1490.0 3899.82290 504.00000 -288.34290 0 751.25 0 242.69266  12.22925  5747.74783  4683.03669  97378.9948
 1489.8 3901.28850 504.00000 -301.35600 0 721.90 0 243.47792  12.21537  5741.22467  4338.55195  89554.2169
 1489.6 3902.72650 504.00000 -301.81260 0 710.25 0 248.25397  12.00809  5643.80176  4057.55610  82940.5274
 1489.4 3904.14135 504.00000 -278.06940 0 699.65 0 257.94816  11.37666  5347.02902  4054.21153  87723.9686
 1489.2 3905.54365 504.00000 -284.34765 0 738.40 0 255.39183  11.28055  5301.85887  4170.70915  90258.2110
 1489.0 3907.00215 504.00000 -292.45230 0 713.10 0 249.50602  10.84602  5097.63093  4444.40447  94132.5411
 1488.8 3908.41640 504.00000 -282.97785 0 696.00 0 249.36846   9.40145  4418.68234  4507.39259  96859.7776
 1488.6 3909.80695 504.00000 -304.32390 0 700.05 0 244.87014   8.30102  3901.47747  4485.54543  98954.3252
 1488.4 3911.24715 495.50000 -284.46180 0 724.25 0 243.83245   9.40928  4422.36337  4241.67943  95462.7315
 1488.2 3912.68825 494.00000 -312.54270 0 707.85 0 250.91187  11.00143  5170.67025  4323.34405  87199.7254
 1488.0 3914.10085 495.66667 -305.12295 0 747.70 0 267.41241  10.57181  4968.75122  3875.70333  79863.4357
 1487.8 3915.57770 505.83333 -300.10035 0 717.70 0 273.57603   9.85194  4630.41159  3367.26061  76448.2961
 1487.6 3917.01535 504.00000 -291.76740 0 715.75 0 287.98822   9.85484  4631.77562  3801.67359  77421.0469
 1487.4 3918.46410 504.00000 -295.87680 0 702.25 0 302.90414   9.11288  4283.05576  4231.89268  84254.9524
 1487.2 3919.86300 504.00000 -302.95410 0 707.90 0 277.57110   9.92536  4664.91925  4861.02509  95823.2325
 1487.0 3921.29330 504.00000 -289.82685 0 717.90 0 261.84729  10.40533  4890.50543  5560.06931 101458.3750
 1486.8 3922.72045 504.00000 -286.97310 0 725.70 0 255.11858  10.31451  4847.81947  5766.83258 108279.1670
 1486.6 3924.14425 504.00000 -293.59380 0 693.30 0 254.01674   8.82750  4148.92631  4725.77789 104420.7960
 1486.4 3925.53930 504.00000 -283.20615 0 722.20 0 257.63469   8.85889  4163.67922  4465.71461  94986.5494
 1486.2 3926.98485 504.00000 -294.50700 0 711.80 0 261.51392   9.21034  4328.86161  4946.67094 102985.2130
 1486.0 3928.42695 504.00000 -316.88040 1 705.15 0 259.05834   9.91052  4657.94227  4911.18458 103392.8150
 1485.8 3929.83200 503.25000 -301.24185 0 706.40 0 252.73356  12.09029  5682.43674  4330.18254  94188.7621
