~Version Information Section
# This file generated by the LAST component (v1.2.08). Tver. R.E.A. 1999-2005
VERS. 2.0 : CWLS LOG ASCII STANDARD - VERSION 2.0"
WRAP. NO  :
~Well Information Section
STRT.M   2025.60 : Начальная Глубина
STOP.M   0700.00 : Конечная  Глубина
  STEP.M                          -0.2 : Шаг по Глубине
NULL.      -9999 : Признак "Нет данных"
DATE.  16.05.2024                                : Дата
TIME.  13:40:02 - 17:08:39                       : Время
~Curve Information Section
DEPT.M                   : Г Л У Б И Н А , м
TIME.S                   : В Р Е М Я , сек
SPID.M/H                 : Скорость м/ч
TENS.KG                  : Натяжение кабеля, кг
METKA.                   : =1 - Магнитная Метка
DTIME.MS                 : Интервальное Время,мс
MARKER.                  : Код маркера
CALI. MM                 : Поправленный Диаметр
GK.MKR                   : Cчет ГК
GK.IMP/M                 : Счет ГК  в имп/мин
NNKBZ.IMP/M              : Счет ННК БЗ в имп/мин
NNKMZ.IMP/M              : Счет ННК МЗ в имп/мин
~A Log data section
# ...
  810.6 8530.72865 536.00000 -285.94575 0 652.25 0 220.99192   8.21819  3862.55139  3938.91533  79113.8669
  810.4 8532.03295 547.00000 -304.20975 0 664.45 0 222.52753   7.15800  3364.25983  3637.60757  77278.9299
  810.2 8533.39035 547.00000 -283.43445 0 665.40 0 225.59010   7.68975  3614.18363  3896.08117  78522.2372
  810.0 8534.73780 547.00000 -281.60805 0 698.15 0 226.40512   8.40088  3948.41483  3886.36219  80728.1156
  809.8 8536.08455 547.00000 -292.10985 0 655.65 0 225.41090   8.84008  4154.83574  3480.76630  82674.8825
  809.6 8537.40570 547.00000 -272.24775 0 663.75 0 225.75029   8.35369  3926.23387  3880.16643  83373.1228
  809.4 8538.75195 536.00000 -296.79000 0 650.80 0 226.25825   8.24589  3875.56863  4735.27885  81862.8550
  809.2 8540.04960 541.50000 -269.27985 0 643.40 0 225.90395   6.87968  3233.45194  4277.71327  82471.2653
  809.0 8541.34155 547.00000 -297.93150 0 663.10 0 225.10505   7.12895  3350.60606  3774.60940  84894.9134
  808.8 8542.66900 547.00000 -305.12295 0 659.90 0 219.78215   6.74694  3171.06267  3983.39788  85049.5657
  808.6 8543.98660 547.00000 -314.48325 0 681.55 0 216.67939   7.48065  3515.90341  4643.26090  83855.5933
  808.4 8545.32340 547.00000 -309.46065 0 658.65 0 216.59002   8.01153  3765.41827  4495.32539  83868.0340
  808.2 8546.64930 547.00000 -271.67700 0 666.45 0 226.12711   8.06778  3791.85492  4050.05147  78423.9497
  808.0 8547.97645 547.00000 -280.69485 0 652.50 0 234.52928   8.41954  3957.18387  3949.38169  76659.1564
  807.8 8549.30320 547.00000 -307.17765 0 651.90 0 261.61569   8.66079  4070.57099  4075.59322  77247.4014
  807.6 8550.61080 547.00000 -304.66635 0 666.45 0 249.59850   7.54088  3544.21224  4240.71086  75799.2273
  807.4 8551.93995 547.00000 -280.23825 0 653.05 0 259.91656   6.60722  3105.39201  3989.68227  74070.5351
  807.2 8553.24765 552.50000 -262.43085 0 650.55 0 245.91133   6.68381  3141.38850  2835.24141  71346.5886
  807.0 8554.54085 554.33333 -294.84945 0 674.55 0 276.74718   7.96433  3743.23462  3350.18224  75988.8698
  806.8 8555.88055 536.00000 -300.10035 0 660.30 0 289.99592   8.83728  4153.52237  3615.02773  81642.0022
  806.6 8557.19175 536.00000 -268.25250 0 652.15 0 238.58842   8.84114  4155.33775  3413.29512  78597.8951
  806.4 8558.49395 537.83333 -264.94215 0 651.75 0 230.65048   8.36838  3933.13903  3330.64335  75350.4258
  806.2 8559.83510 548.83333 -284.69010 0 670.40 0 254.05843   8.08110  3798.11591  3040.41608  70249.3995
  806.0 8561.16585 547.00000 -277.95525 0 657.05 0 283.18043   7.59977  3571.89030  2888.74585  69497.7256
  805.8 8562.47580 547.00000 -304.32390 1 646.15 0 265.22116   7.05408  3315.41727  3213.39952  74190.9706
  805.6 8563.77345 547.00000 -278.64015 0 664.15 0 247.02807   7.63364  3587.81187  3350.09047  74506.7261
  805.4 8565.10585 547.00000 -268.13835 0 685.35 0 251.64586   7.98057  3750.87009  3328.83725  75104.2450
  805.2 8566.44620 547.00000 -284.46180 0 651.20 0 252.25196   8.58277  4033.90144  3277.16308  72220.7016
  805.0 8567.74340 545.16667 -268.82325 0 649.70 0 264.37963   7.91603  3720.53455  3134.14132  68440.0681
  804.8 8569.05675 536.91667 -318.82095 0 663.30 0 258.71941   7.23398  3399.97037  2624.01586  69774.4171
  804.6 8570.39330 536.00000 -293.82210 0 646.95 0 268.73938   6.76481  3179.46172  2616.11381  71744.8546
  804.4 8571.68950 541.50000 -273.38925 0 647.30 0 317.43806   6.59881  3101.44224  2565.39675  72815.2978
  804.2 8572.98850 547.00000 -293.25135 0 665.05 0 296.58348   7.45056  3501.76128  3163.94729  71860.8972
  804.0 8574.32260 547.00000 -287.31555 0 685.80 0 284.99013   8.32221  3911.44021  2817.36726  70490.9974
  803.8 8575.66600 547.00000 -280.58070 0 654.35 0 260.74852   8.97383  4217.69861  2464.33164  72059.1142
  803.6 8576.96990 547.00000 -303.18240 0 654.75 0 263.91862   9.26193  4353.10928  2449.81287  71644.5424
  803.4 8578.29390 547.00000 -277.04205 0 667.00 0 264.51399   8.64040  4060.98817  2897.92238  72083.4449
  803.2 8579.61765 547.00000 -287.54385 0 653.25 0 266.30661   8.33257  3916.30600  3205.38085  68720.9840
  803.0 8580.94260 547.00000 -300.21450 0 646.15 0 247.80346   8.29910  3900.57711  3314.13842  68864.1113
  802.8 8582.24215 547.00000 -304.78050 0 669.00 0 268.27632   7.26098  3412.65851  3221.29823  70391.9828
  802.6 8583.57910 547.00000 -284.23350 0 654.95 0 273.51090   7.96230  3742.28045  3276.20298  72126.9063
  802.4 8584.88340 547.00000 -266.08365 0 669.20 0 265.55697   7.47049  3511.13199  3601.30528  73304.9402
  802.2 8586.20030 547.00000 -302.72580 0 654.10 0 251.68520   8.52254  4005.59507  3011.39913  73489.0570
  802.0 8587.51805 536.00000 -285.48915 0 664.70 0 236.78617   8.34445  3921.89313  3064.82386  69993.4545
  801.8 8588.84240 536.00000 -268.25250 0 656.45 0 265.44176   8.80601  4138.82415  3067.59890  68629.4927
  801.6 8590.15170 541.50000 -284.80425 0 653.30 0 266.32312   9.10583  4279.74220  2896.44286  71238.2307
  801.4 8591.48805 547.00000 -286.97310 0 665.85 0 269.71818   7.21722  3392.09349  2764.69270  71307.9657
  801.2 8592.81835 558.00000 -275.32980 0 659.05 0 248.14453   7.58026  3562.72078  3414.49872  69164.3763
  801.0 8594.13240 558.00000 -277.38450 0 648.20 0 270.90316   8.34939  3924.21167  3228.45483  67735.6098
  800.8 8595.43240 563.50000 -303.86730 0 684.85 0 262.00645   8.06137  3788.84340  3365.56551  66183.8819
  800.6 8596.77390 569.00000 -259.46295 0 642.80 0 264.49291   8.12667  3819.53605  3008.73563  65354.8919
  800.4 8598.05445 569.00000 -307.06350 0 638.10 0 302.30113   8.44433  3968.83448  2479.27192  68293.3586
  800.2 8599.32920 558.00000 -313.57005 0 627.25 0 278.50656  10.24002  4812.81166  2827.14929  69194.4412
  800.0 8600.63175 552.50000 -279.78165 0 668.75 0 280.51573   9.57433  4499.93609  3236.11474  69010.4442
  799.8 8601.94545 547.00000 -317.67945 0 660.35 0 262.32835   9.15825  4304.37915  3324.48807  68875.3078
  799.6 8603.24645 547.00000 -291.31080 0 635.25 0 255.00920   9.10651  4280.06039  3003.72043  68707.6278
  799.4 8604.52025 558.00000 -289.02780 0 657.10 0 246.42536   9.04341  4250.40059  2686.52604  71674.3399
  799.2 8605.83185 558.00000 -303.06825 0 643.55 0 252.16925   8.48795  3989.33439  2587.26208  73399.8493
  799.0 8607.13660 563.50000 -304.66635 0 638.95 0 256.42785   8.34025  3919.91816  2919.26819  74029.6207
  798.8 8608.40990 569.00000 -303.63900 0 640.00 0 251.68058   8.60939  4046.41437  3595.75044  75994.2506
  798.6 8609.70290 558.00000 -297.01830 0 653.45 0 235.61212   7.42329  3488.94496  3721.61622  77979.3948
  798.4 8610.99930 558.00000 -280.92315 0 657.45 0 234.37964   7.73928  3637.46184  3627.70243  75871.7370
  798.2 8612.29340 558.00000 -302.61165 0 634.25 0 248.10828   9.10382  4278.79638  3600.84429  75716.5289
  798.0 8613.56925 558.00000 -260.03370 0 651.85 0 252.64730   9.41490  4425.00426  3381.83719  76606.1167
  797.8 8614.86560 558.00000 -302.04090 0 632.15 0 241.76257   9.32284  4381.73399  3779.54680  77296.0619
  797.6 8616.12990 558.00000 -273.27510 0 628.70 0 218.28967   8.76565  4119.85385  3594.25712  77857.4683
  797.4 8617.40960 558.00000 -290.62590 0 643.70 0 216.63345   7.75468  3644.70126  3452.73979  76846.4411
  797.2 8618.71015 558.00000 -276.12885 0 651.95 0 242.93082   8.09859  3806.33674  3756.40227  78289.2423
  797.0 8620.00450 558.00000 -296.67585 0 641.45 0 220.63107   8.46646  3979.23574  3574.10774  75490.4492
  796.8 8621.27925 558.00000 -307.06350 0 656.20 0 220.50502   7.71788  3627.40277  3490.45568  69764.0092
  796.6 8622.58255 558.00000 -283.54860 0 653.05 0 266.16469   8.19301  3850.71628  2867.76669  65859.1250
  796.4 8623.88395 558.00000 -289.71270 0 645.50 0 317.87202   8.43979  3966.70129  2707.88158  67290.7620
  796.2 8625.17100 558.00000 -299.52960 0 632.65 0 292.14304   8.17393  3841.74763  2606.70782  68395.9467
  796.0 8626.43630 558.00000 -278.75430 0 639.55 0 275.53886   7.73103  3633.58524  3111.48434  66024.3177
  795.8 8627.74570 558.00000 -270.53550 1 648.45 0 264.53670   8.31227  3906.76856  2780.61077  65767.6437
