~Version Information Section
# This file generated by the LAST component (v1.2.08). Tver. R.E.A. 1999-2005
VERS. 2.0 : CWLS LOG ASCII STANDARD - VERSION 2.0"
WRAP. NO  :
~Well Information Section
STRT.M   2025.60 : Начальная Глубина
STOP.M   0700.00 : Конечная  Глубина
  STEP.M                          -0.2 : Шаг по Глубине
NULL.      -9999 : Признак "Нет данных"
DATE.  16.05.2024                                : Дата
TIME.  13:40:02 - 17:08:39                       : Время
~Curve Information Section
DEPT.M                   : Г Л У Б И Н А , м
TIME.S                   : В Р Е М Я , сек
SPID.M/H                 : Скорость м/ч
TENS.KG                  : Натяжение кабеля, кг
METKA.                   : =1 - Магнитная Метка
DTIME.MS                 : Интервальное Время,мс
MARKER.                  : Код маркера
CALI. MM                 : Поправленный Диаметр
GK.MKR                   : Cчет ГК
GK.IMP/M                 : Счет ГК  в имп/мин
NNKBZ.IMP/M              : Счет ННК БЗ в имп/мин
NNKMZ.IMP/M              : Счет ННК МЗ в имп/мин
~A Log data section
# ...
 1335.6 4985.32420 515.00000 -327.38220 1 699.45 0 238.43184   5.99920  2819.62193  4309.15007  93652.6659
 1335.4 4986.72725 515.00000 -312.08610 0 696.05 0 238.11804   6.47914  3045.19771  4259.89802  95133.2820
 1335.2 4988.13660 515.00000 -309.34650 0 685.40 0 238.21434   6.17609  2902.76457  4291.31659  94548.0743
 1335.0 4989.49970 520.50000 -296.21925 0 675.30 0 238.09177   6.09030  2862.44268  4660.81787  95438.6297
 1334.8 4990.86865 526.00000 -338.91135 0 703.95 0 240.11024   6.44467  3028.99549  5532.21384  98167.1689
 1334.6 4992.26470 526.00000 -298.50225 0 688.50 0 238.64192   7.02023  3299.51034  5624.71137 101724.5270
 1334.4 4993.64550 515.00000 -298.95885 0 704.15 0 236.22145   7.02635  3302.38372  5345.19338 102004.3790
 1334.2 4995.03100 507.66667 -303.18240 0 701.00 0 234.12507   5.97432  2807.93126  5177.65141  98636.2606
 1334.0 4996.43810 504.00000 -294.27870 0 697.65 0 232.77229   5.64226  2651.86190  4722.79329 100287.4480
 1333.8 4997.82495 509.50000 -326.58315 0 686.00 0 232.48264   6.55658  3081.59121  4773.10796 100576.9270
 1333.6 4999.21655 515.00000 -307.06350 0 734.00 0 231.54850   7.02575  3302.10099  4936.48656 100092.0960
 1333.4 5000.67365 515.00000 -333.08970 0 703.85 0 232.30700   6.16473  2897.42487  4915.63809 102170.7610
 1333.2 5002.07705 515.00000 -324.30015 0 688.35 0 232.00286   6.62842  3115.35940  4410.22768  98829.6506
 1333.0 5003.44700 526.00000 -334.23120 0 675.20 0 229.26850   6.86265  3225.44445  4529.78033  98055.2657
 1332.8 5004.82605 526.00000 -316.88040 0 694.10 0 227.95776   7.60056  3572.26085  4714.56463  97918.1423
 1332.6 5006.21975 520.50000 -298.27395 0 696.35 0 228.12883   7.56041  3553.39038  5157.15508 101966.5290
 1332.4 5007.60390 515.00000 -314.71155 0 686.95 0 227.71935   6.72479  3160.64903  5466.19587 106132.4420
 1332.2 5008.97410 515.00000 -300.67110 0 687.65 0 227.82723   7.46664  3509.32137  5068.10614 104380.9050
 1332.0 5010.36440 514.08333 -320.87565 0 726.85 0 227.96388   7.12520  3348.84524  4821.51344 102499.3880
 1331.8 5011.78600 510.41667 -297.47490 0 691.30 0 228.75231   7.26958  3416.70322  4443.02313 100820.8680
 1331.6 5013.16120 515.91667 -316.76625 0 676.55 0 227.92777   7.47906  3515.15831  4499.07729 100744.2340
 1331.4 5014.52800 526.00000 -313.57005 0 705.50 0 228.62760   6.72010  3158.44490  4938.74042  97591.6051
 1331.2 5015.95820 526.00000 -316.76625 0 693.10 0 229.08494   7.17504  3372.26663  5767.64937 100012.0780
 1331.0 5017.34015 515.00000 -301.12770 0 680.70 0 226.81178   6.59486  3099.58297  5646.64278 102027.9150
 1330.8 5018.69920 515.00000 -306.15030 0 686.20 0 226.62266   6.29564  2958.94997  5655.44995  99940.8065
 1330.6 5020.08295 515.00000 -288.22875 0 702.30 0 226.80904   7.19088  3379.71457  5336.63480  98982.7177
 1330.4 5021.48095 515.00000 -308.20500 0 711.00 0 228.53149   6.96705  3274.51330  4773.11270  97140.5351
 1330.2 5022.87955 515.00000 -313.68420 0 695.30 0 229.12073   7.39799  3477.05597  4302.48606  95726.7467
 1330.0 5024.31895 515.00000 -310.37385 0 723.10 0 231.18514   7.01188  3295.58331  4348.03374  95129.9308
 1329.8 5025.74530 515.00000 -316.30965 0 694.75 0 231.86638   5.39721  2536.68782  5020.08870  97302.0964
 1329.6 5027.12930 515.00000 -312.88515 0 708.05 0 231.53357   5.59182  2628.15735  5644.17947  97502.5430
 1329.4 5028.52395 526.00000 -305.35125 0 700.30 0 228.39328   6.98771  3284.22566  5073.89314  95370.3464
 1329.2 5029.93170 520.50000 -323.38695 0 703.15 0 228.50882   6.11402  2873.58896  5041.37674  96706.1666
 1329.0 5031.32590 515.00000 -327.49635 0 687.40 0 227.27726   6.07630  2855.85912  4930.03714  95189.2689
 1328.8 5032.71865 515.00000 -307.74840 0 684.20 0 226.53390   6.27368  2948.63023  5058.78680  94248.0590
 1328.6 5034.10245 515.00000 -319.27755 0 698.70 0 225.44096   5.54741  2607.28220  4913.57147  94401.5354
 1328.4 5035.49095 515.00000 -318.82095 0 688.80 0 225.28270   6.84876  3218.91699  4787.32534  92481.3936
 1328.2 5036.87110 526.00000 -311.62950 0 683.45 0 224.13011   7.57607  3560.75356  4890.83593  91737.0221
 1328.0 5038.24220 520.50000 -320.30490 0 728.10 0 223.54278   6.02132  2830.01940  4530.16286  93492.3392
 1327.8 5039.67460 515.00000 -302.95410 0 693.55 0 222.85773   6.03456  2836.24394  5130.13600  94671.2730
 1327.6 5041.05580 515.00000 -286.40235 0 689.80 0 223.35319   7.73924  3637.44239  4772.65497  96174.0168
 1327.4 5042.42855 515.00000 -333.77460 0 687.75 0 224.05785   7.73996  3637.78317  5063.96305  95659.4388
 1327.2 5043.84705 515.00000 -317.10870 0 704.30 0 226.87478   7.14796  3359.54156  5177.23066  95213.9174
 1327.0 5045.24355 520.50000 -289.48440 0 688.15 0 227.45872   7.50627  3527.94586  5253.27789  95854.3903
 1326.8 5046.61565 526.00000 -304.09560 0 679.15 0 225.66191   7.17622  3372.82455  5076.78165  93579.0453
 1326.6 5047.98005 520.50000 -298.50225 0 696.35 0 228.14093   6.74282  3169.12356  4590.43633  91763.0478
 1326.4 5049.37125 515.00000 -326.58315 0 712.10 0 231.69627   7.23121  3398.66672  4097.40975  92014.9302
 1326.2 5050.76925 515.00000 -319.73415 0 682.40 0 231.92997   7.57417  3559.86091  4211.87982  90598.0243
 1326.0 5052.13770 515.00000 -293.36550 0 698.15 0 235.46301   8.47770  3984.51973  4085.66777  87788.1419
 1325.8 5053.54245 515.00000 -313.11345 0 702.10 0 242.39533   8.01433  3766.73277  4100.57804  91136.6203
 1325.6 5054.95700 515.00000 -303.98145 0 684.90 0 241.92585   6.76165  3177.97328  4336.96955  94431.8364
 1325.4 5056.32565 520.50000 -310.48800 0 685.15 0 241.60496   7.31391  3437.53586  4424.69663  92203.5351
 1325.2 5057.70795 526.00000 -305.23710 0 703.70 0 245.42810   7.21192  3389.60332  4562.92197  91857.2496
 1325.0 5059.11075 526.00000 -314.02665 0 691.60 0 240.40825   7.24219  3403.82840  5336.38978  94604.7506
 1324.8 5060.49110 515.00000 -320.53320 0 707.20 0 238.60557   7.63789  3589.80862  4511.43897  95803.7805
 1324.6 5061.88235 515.00000 -311.05875 0 691.05 0 238.38651   7.43024  3492.21121  4160.09573  96762.3522
 1324.4 5063.26795 515.00000 -302.26920 0 693.00 0 239.80836   7.35548  3457.07328  4884.83996  95382.3519
 1324.2 5064.64810 515.00000 -290.16930 0 687.00 0 238.49894   8.18407  3846.51059  4987.80494  94613.3864
 1324.0 5066.03895 526.00000 -295.07775 0 681.50 0 235.03308   7.69215  3615.31053  4495.08430  91919.8142
 1323.8 5067.42165 526.00000 -286.40235 0 707.00 0 231.69910   7.28903  3425.84323  5004.63921  91896.7415
 1323.6 5068.82565 515.00000 -313.45590 0 691.20 0 229.98784   6.49015  3050.36958  4895.84695  94191.8440
 1323.4 5070.20705 515.00000 -310.48800 0 682.20 0 228.17042   6.97507  3278.28235  5066.10361  95805.8689
 1323.2 5071.57365 515.00000 -306.83520 0 724.70 0 227.21174   7.60464  3574.18194  4920.75031  95579.2924
 1323.0 5073.00360 515.00000 -297.81735 0 697.55 0 226.94270   8.89536  4180.82000  4433.51609  95383.0137
 1322.8 5074.39000 515.00000 -285.71745 0 688.25 0 224.33931   7.30194  3431.91260  4190.67982  93887.2066
 1322.6 5075.76320 515.00000 -323.72940 0 685.35 0 220.90520   7.84450  3686.91633  4447.55141  93293.1474
 1322.4 5077.16570 515.00000 -314.71155 0 694.10 0 225.86310   7.58876  3566.71808  4609.20941  97645.6189
 1322.2 5078.54830 515.00000 -326.58315 0 685.25 0 227.88052   8.01814  3768.52383  4574.60201  99235.9311
 1322.0 5079.91920 515.00000 -292.90890 0 682.15 0 231.00069   8.83510  4152.49734  5320.98195  98094.3048
 1321.8 5081.29130 515.00000 -315.05400 0 726.40 0 231.18889   8.40968  3952.54763  4882.53374  98107.7474
 1321.6 5082.72180 526.00000 -320.53320 0 697.00 0 227.32829   8.05743  3786.99445  4581.78669  96909.6101
 1321.4 5084.10825 526.00000 -314.71155 0 684.25 0 225.59815   8.12156  3817.13459  4240.81910  92145.6100
 1321.2 5085.47805 515.00000 -314.14080 0 697.10 0 225.70786   7.09986  3336.93647  4972.08291  89538.2293
 1321.0 5086.87540 515.00000 -330.92085 0 697.90 0 225.61468   6.20153  2914.71882  5406.47491  90188.9500
 1320.8 5088.29125 520.50000 -317.10870 0 687.95 0 228.57283   7.28434  3423.63765  4731.20937  90484.6998
