~Version Information Section
# This file generated by the LAST component (v1.2.08). Tver. R.E.A. 1999-2005
VERS. 2.0 : CWLS LOG ASCII STANDARD - VERSION 2.0"
WRAP. NO  :
~Well Information Section
STRT.M   2025.60 : Начальная Глубина
STOP.M   0700.00 : Конечная  Глубина
  STEP.M                          -0.2 : Шаг по Глубине
NULL.      -9999 : Признак "Нет данных"
DATE.  16.05.2024                                : Дата
TIME.  13:40:02 - 17:08:39                       : Время
~Curve Information Section
DEPT.M                   : Г Л У Б И Н А , м
TIME.S                   : В Р Е М Я , сек
SPID.M/H                 : Скорость м/ч
TENS.KG                  : Натяжение кабеля, кг
METKA.                   : =1 - Магнитная Метка
DTIME.MS                 : Интервальное Время,мс
MARKER.                  : Код маркера
CALI. MM                 : Поправленный Диаметр
GK.MKR                   : Cчет ГК
GK.IMP/M                 : Счет ГК  в имп/мин
NNKBZ.IMP/M              : Счет ННК БЗ в имп/мин
NNKMZ.IMP/M              : Счет ННК МЗ в имп/мин
~A Log data section
# ...
 1590.6 3175.94960 483.00000 -283.89105 0 738.20 0 235.16865   9.65394  4537.35031  4356.64917  96225.5624
 1590.4 3177.42645 483.00000 -269.05155 0 732.20 0 234.50068   9.88518  4646.03667  4734.33789  92920.9549
 1590.2 3178.88720 488.50000 -276.58545 0 727.05 0 233.62243   9.83072  4620.43936  4180.91267  92856.2419
 1590.0 3180.39590 494.00000 -296.21925 0 786.70 0 232.84763  10.39951  4887.76874  4100.40940  94470.9491
 1589.8 3181.91970 488.50000 -288.34290 0 737.25 0 232.55933   9.48855  4459.62054  4672.88132  93123.3189
 1589.6 3183.39410 483.00000 -296.10510 0 728.10 0 232.99317   9.54646  4486.83729  4737.25224  94364.7024
 1589.4 3184.84250 494.00000 -286.97310 0 722.60 0 233.40446  10.77156  5062.63212  4190.30902  93923.9812
 1589.2 3186.29990 494.00000 -299.98620 0 747.35 0 233.61882   9.89912  4652.58577  4330.36551  92615.8431
 1589.0 3187.81285 483.00000 -302.72580 0 729.90 0 234.06822   8.79273  4132.58446  4360.87696  92706.2715
 1588.8 3189.27030 488.50000 -295.19190 0 719.00 0 234.46133   9.56271  4494.47421  4378.35724  92811.4627
 1588.6 3190.70860 494.00000 -286.17405 0 732.45 0 234.78390   9.59171  4508.10460  4759.64927  94327.3253
 1588.4 3192.17895 494.00000 -276.58545 0 760.20 0 234.61808  10.06997  4732.88522  4725.37611  96555.4068
 1588.2 3193.67210 488.50000 -305.00880 0 732.40 0 234.84799   9.32943  4384.82979  4792.70398  96839.4668
 1588.0 3195.12595 483.00000 -269.39400 0 724.00 0 235.25984   9.16198  4306.12868  5094.50115  98124.7401
 1587.8 3196.58980 483.00000 -289.48440 0 743.85 0 235.39911   9.11269  4282.96497  4928.79651  95097.7140
 1587.6 3198.07125 494.00000 -285.14670 0 728.30 0 235.70935  10.18092  4785.03113  5006.02676  95751.9659
 1587.4 3199.55215 494.00000 -293.02305 0 726.55 0 236.28071  10.31878  4849.82654  4994.06413  95032.7994
 1587.2 3201.00620 494.00000 -289.37025 0 738.55 0 236.31750   9.79994  4605.96968  4493.40127  94743.0353
 1587.0 3202.49000 494.00000 -282.06465 0 739.80 0 236.28863  10.30996  4845.68295  4357.00748  94059.5317
 1586.8 3203.95900 494.00000 -287.31555 0 750.20 0 236.59066  10.02450  4711.51617  4840.26613  94645.9655
 1586.6 3205.42725 488.50000 -264.94215 0 719.80 0 235.87641   9.47119  4451.46058  4801.03311  96192.9298
 1586.4 3206.88120 483.00000 -284.80425 0 740.00 0 236.35240   9.41059  4422.97954  4958.03749  98886.3240
 1586.2 3208.35675 483.00000 -284.57595 1 730.55 0 236.92549   9.55070  4488.82937  5158.95907 100883.0800
 1586.0 3209.81995 483.00000 -291.53910 0 722.10 0 237.03004   8.44940  3971.21818  4723.83773 101592.1240
 1585.8 3211.29140 483.00000 -307.40595 0 742.00 0 236.97956   8.54829  4017.69750  5148.61860 100756.3730
 1585.6 3212.77850 483.00000 -304.32390 0 737.15 0 237.11631   8.69892  4088.49033  5813.30494  97439.0465
 1585.4 3214.24290 488.50000 -284.46180 0 726.45 0 237.22726   8.52566  4007.05867  5817.78822  94757.3871
 1585.2 3215.69490 494.00000 -290.96835 0 758.70 0 239.25262   9.53055  4479.36039  5108.37215  96516.2426
 1585.0 3217.19865 488.50000 -276.01470 0 766.20 0 242.41100   9.62728  4524.82273  4100.29640  96346.2158
 1584.8 3218.74580 483.00000 -307.06350 0 723.70 0 244.96081   8.92833  4196.31654  4995.68944  97466.3872
 1584.6 3220.18745 483.00000 -290.16930 0 719.05 0 244.58098  10.04971  4723.36269  5506.36005  99624.2998
 1584.4 3221.63785 483.00000 -291.53910 0 766.50 0 242.82342   8.96607  4214.05267  4695.93572 100718.0740
 1584.2 3223.14655 494.00000 -272.24775 0 735.10 0 243.23849   9.91136  4658.34085  4383.89284 101011.9450
 1584.0 3224.60950 494.00000 -275.21565 0 722.10 0 245.49127   9.71668  4566.84138  5292.09989 102342.3690
 1583.8 3226.05885 494.00000 -296.21925 0 743.80 0 243.19482   9.55652  4491.56668  5461.94287 101212.0040
 1583.6 3227.54895 494.00000 -283.43445 0 733.65 0 246.06896   9.74917  4582.11199  5302.73792 102514.6520
 1583.4 3229.03485 488.50000 -277.38450 0 729.85 0 245.28304   9.56556  4495.81531  5221.94511 102787.5060
 1583.2 3230.49090 483.00000 -288.11460 0 725.80 0 242.57185   9.48867  4459.67639  5118.27613 101531.4400
 1583.0 3231.95670 483.00000 -298.04565 0 748.20 0 241.72602   8.38481  3940.85991  4858.62035 101670.2110
 1582.8 3233.44480 483.00000 -288.91365 0 752.45 0 241.11492   9.83602  4622.93065  4824.58664  98198.0548
 1582.6 3234.91925 494.00000 -297.01830 0 714.15 0 240.77710   9.90565  4655.65767  4906.19533  95647.7039
 1582.4 3236.35370 494.00000 -267.79590 0 742.65 0 240.53031   8.95660  4209.60194  4542.54151  93745.4056
 1582.2 3237.84360 494.00000 -269.62230 0 738.95 0 239.56919   8.60375  4043.76265  4552.40247  94390.5099
 1582.0 3239.31340 494.00000 -284.57595 0 727.25 0 239.19192   8.29688  3899.53494  4932.90383  98565.8291
 1581.8 3240.78775 494.00000 -292.45230 0 727.20 0 238.09559   7.66340  3601.79871  5399.62970 101347.6430
 1581.6 3242.25800 488.50000 -301.35600 0 745.00 0 238.07340   8.95809  4210.30304  4624.28166  97166.1378
 1581.4 3243.73825 483.00000 -284.34765 0 727.45 0 237.89023   9.65131  4536.11418  4707.08984  97931.2906
 1581.2 3245.19375 494.00000 -283.54860 0 747.55 0 239.18813  10.67084  5015.29624  4496.49896  99495.9863
 1581.0 3246.67010 494.00000 -275.55810 0 746.75 0 238.55958   9.41632  4425.66829  4143.08465  95985.1699
 1580.8 3248.16275 483.00000 -296.79000 0 733.10 0 238.60249   9.50906  4469.25915  4493.76519  96929.7107
 1580.6 3249.61630 483.00000 -277.95525 0 716.65 0 237.13881  10.12283  4757.72807  4985.50942  99362.5277
 1580.4 3251.05155 483.00000 -285.94575 0 731.25 0 236.60221   9.78704  4599.90780  4881.77682  97452.8336
 1580.2 3252.55420 483.00000 -297.36075 0 742.90 0 236.09413  10.17398  4781.76927  4929.97180  96247.9252
 1580.0 3254.05430 488.50000 -304.66635 0 778.85 0 235.84174   9.54340  4485.39761  4671.51982  98059.2090
 1579.8 3255.55700 494.00000 -289.59855 0 722.50 0 235.81286   9.74811  4581.61155  4647.94848  97012.3738
 1579.6 3257.01405 494.00000 -292.79475 0 745.35 0 236.12214   9.05617  4256.39852  4788.73834  96508.7201
 1579.4 3258.52570 494.00000 -293.93625 0 730.30 0 235.78513   9.12108  4286.90774  4567.55171  95983.9664
 1579.2 3259.98485 494.00000 -297.47490 0 723.75 0 235.63808   9.63716  4529.46378  4635.50566  94061.9016
 1579.0 3261.43260 494.00000 -290.51175 0 740.85 0 235.64457   9.15713  4303.85224  4351.33059  96846.9702
 1578.8 3262.92190 488.50000 -302.15505 0 760.70 0 235.65899   9.71901  4567.93637  4305.31344  99753.5945
 1578.6 3264.40490 483.00000 -281.60805 0 723.05 0 236.43835  10.17706  4783.21593  4876.17698  99217.2313
 1578.4 3265.85055 488.50000 -287.88630 0 726.40 0 238.07658   8.53834  4013.01925  5124.22647  99098.6443
 1578.2 3267.31475 494.00000 -291.42495 0 745.00 0 236.30299   8.87324  4170.42276  5731.96513 100448.9700
 1578.0 3268.80000 483.00000 -294.50700 0 730.30 0 237.16421   9.48289  4456.96034  5880.38015  99562.4090
 1577.8 3270.28405 483.00000 -275.55810 0 723.60 0 237.27587  10.44741  4910.28116  5540.72656  97615.5965
 1577.6 3271.73835 483.00000 -294.05040 0 740.95 0 238.37419   9.97140  4686.55946  5350.27774  96748.9645
 1577.4 3273.21925 483.00000 -297.47490 0 737.05 0 239.44664   8.29445  3898.38952  5162.65120  98882.3164
 1577.2 3274.68760 483.00000 -300.89940 0 754.50 0 238.97189   8.86459  4166.35825  5073.40428  99829.6038
 1577.0 3276.21500 483.00000 -275.78640 0 754.60 0 238.84067   8.40951  3952.46773  4869.88570  99305.6275
 1576.8 3277.71300 483.00000 -302.38335 0 740.65 0 238.20812   9.63103  4526.58420  5199.47267 104071.0300
 1576.6 3279.18580 488.50000 -279.09675 0 724.40 0 237.71306  10.71876  5037.81641  5992.69700 104401.1630
 1576.4 3280.63255 494.00000 -291.53910 0 749.25 0 237.56327   8.63019  4056.19093  5770.44781 103633.7560
 1576.2 3282.11890 494.00000 -275.90055 1 748.10 0 236.81832   8.17950  3844.36622  5505.40967 104865.7360
 1576.0 3283.60780 494.00000 -282.40710 0 733.45 0 236.93103   9.21740  4332.17632  5570.44195 104972.7160
 1575.8 3285.07090 483.00000 -291.99570 0 725.50 0 237.73686   9.42154  4428.12186  5781.13220 104063.0830
