~Version Information Section
# This file generated by the LAST component (v1.2.08). Tver. R.E.A. 1999-2005
VERS. 2.0 : CWLS LOG ASCII STANDARD - VERSION 2.0"
WRAP. NO  :
~Well Information Section
STRT.M   2025.60 : Начальная Глубина
STOP.M   0700.00 : Конечная  Глубина
  STEP.M                          -0.2 : Шаг по Глубине
NULL.      -9999 : Признак "Нет данных"
DATE.  16.05.2024                                : Дата
TIME.  13:40:02 - 17:08:39                       : Время
~Curve Information Section
DEPT.M                   : Г Л У Б И Н А , м
TIME.S                   : В Р Е М Я , сек
SPID.M/H                 : Скорость м/ч
TENS.KG                  : Натяжение кабеля, кг
METKA.                   : =1 - Магнитная Метка
DTIME.MS                 : Интервальное Время,мс
MARKER.                  : Код маркера
CALI. MM                 : Поправленный Диаметр
GK.MKR                   : Cчет ГК
GK.IMP/M                 : Счет ГК  в имп/мин
NNKBZ.IMP/M              : Счет ННК БЗ в имп/мин
NNKMZ.IMP/M              : Счет ННК МЗ в имп/мин
~A Log data section
# ...
 1845.6 1266.63330 483.00000 -297.36075 0 765.10 0 235.15874   8.28440  3893.66745  8606.68726 113204.4980
 1845.4 1268.15490 472.00000 -265.96950 0 775.25 0 238.70592   8.54810  4017.60624  5573.10016  97034.6531
 1845.2 1269.68030 472.00000 -290.05515 0 744.05 0 239.70665   8.73070  4103.42984  5441.23554  94580.5340
 1845.0 1271.17550 472.00000 -295.19190 0 768.80 0 242.31449   8.44098  3967.26227  5054.95846  96980.1978
 1844.8 1272.70515 472.00000 -277.95525 0 754.10 0 241.20139   7.99209  3756.28414  4831.08669  96115.3288
 1844.6 1274.23575 477.50000 -288.91365 0 745.55 0 250.16428   8.13210  3822.08912  4790.63702  97671.1299
 1844.4 1275.72300 483.00000 -276.01470 0 750.05 0 252.84360   8.98686  4223.82305  5685.97687 103839.9190
 1844.2 1277.24010 483.00000 -292.33815 0 765.65 0 242.44252   7.90144  3713.67504  5379.12753 106345.2960
 1844.0 1278.75700 483.00000 -267.22515 0 741.70 0 244.19138   8.68186  4080.47544  4820.45536  99243.6791
 1843.8 1280.23400 483.00000 -302.15505 0 762.85 0 244.02577   8.97197  4216.82438  4604.43796  97538.6211
 1843.6 1281.75060 483.00000 -286.40235 0 766.25 0 240.10672   8.19830  3853.19954  4929.16961  96392.0648
 1843.4 1283.28145 472.00000 -301.24185 0 757.50 0 244.23901   8.22883  3867.54783  4972.46970  91746.9490
 1843.2 1284.79005 472.00000 -271.56285 0 744.60 0 247.74181   8.90951  4187.46885  4637.83149  90337.6010
 1843.0 1286.30435 472.00000 -271.90530 0 756.90 0 248.16537   8.76334  4118.77020  4064.52139  85288.1789
 1842.8 1287.82670 472.00000 -290.16930 0 759.20 0 251.41473   8.32283  3911.73122  4109.40471  85067.2623
 1842.6 1289.34060 477.50000 -277.72695 0 750.10 0 253.68295  10.44296  4908.19021  4699.54436  92848.4453
 1842.4 1290.82880 483.00000 -307.29180 0 741.45 0 246.99777  10.53273  4950.38454  4432.45359  98320.5873
 1842.2 1292.32930 483.00000 -272.36190 0 794.35 0 240.56442  10.22910  4807.67486  4506.77369  99889.7115
 1842.0 1293.88505 472.00000 -284.00520 0 745.05 0 238.63236  10.73351  5044.74803  4762.19469 103698.2380
 1841.8 1295.37375 472.00000 -272.47605 0 741.70 0 238.66688  11.05185  5194.37160  4988.58017  99897.0509
 1841.6 1296.86190 472.00000 -291.88155 0 761.70 0 239.86073   9.70712  4562.34750  4652.75373  91503.7842
 1841.4 1298.41545 472.00000 -283.20615 0 760.00 0 250.37633   9.15739  4303.97511  4612.12740  88144.8183
 1841.2 1299.92740 472.00000 -294.73530 0 752.30 0 257.36973   8.89478  4180.54558  5000.42277  95386.4826
 1841.0 1301.42320 472.00000 -296.21925 0 744.70 0 245.05507   8.48190  3986.49434  5234.54688  99180.6556
 1840.8 1302.92940 472.00000 -294.73530 0 771.35 0 240.40349   9.71765  4567.29584  5260.64484  98853.2356
 1840.6 1304.46005 477.50000 -280.69485 0 770.45 0 234.43537   9.14249  4296.97005  4979.99128  98641.2824
 1840.4 1305.98620 483.00000 -301.12770 0 750.45 0 235.61191   9.08296  4268.98917  4681.96397  96680.1851
 1840.2 1307.48440 483.00000 -294.96360 0 763.10 0 236.89743   8.81896  4144.91152  5110.11865  94096.6607
 1840.0 1309.05985 483.00000 -279.43920 0 775.40 0 235.38692   9.56757  4496.75754  5186.05668  96480.9400
 1839.8 1310.58025 483.00000 -292.45230 0 770.50 0 234.94469   9.33147  4385.79140  5231.81466  97775.9066
 1839.6 1312.09475 483.00000 -294.62115 0 755.80 0 234.03992   9.09019  4272.39046  5185.52316  94456.0154
 1839.4 1313.61710 472.00000 -291.08250 0 762.60 0 233.35190   9.77150  4592.60502  4987.23121  98635.4145
 1839.2 1315.13655 472.00000 -285.71745 0 752.10 0 229.44277   8.75512  4114.90590  5470.44700  99114.1334
 1839.0 1316.65915 472.00000 -277.72695 0 742.10 0 227.16724   8.29629  3899.25481  5181.19222 101019.2510
 1838.8 1318.15775 472.00000 -284.57595 0 767.15 0 224.22176   8.14372  3827.54814  5273.08300 102893.3210
 1838.6 1319.68610 477.50000 -286.17405 0 754.20 0 223.78097   8.44666  3969.92845  5631.73335 108533.4230
 1838.4 1321.19225 483.00000 -292.33815 0 744.85 0 224.27954   7.92131  3723.01600  6729.47308 113913.8730
 1838.2 1322.67875 483.00000 -277.61280 0 778.40 0 223.96938   7.34706  3453.11795  6337.94191 101445.2800
 1838.0 1324.21765 472.00000 -283.89105 0 754.45 0 226.99233   9.33069  4385.42645  5899.33988  99018.8874
 1837.8 1325.72260 472.00000 -275.55810 0 750.40 0 227.53700   9.54564  4486.45250  5824.45869 103402.7390
 1837.6 1327.21680 472.00000 -294.84945 0 745.50 0 228.96612  10.03431  4716.12413  5581.23169  97581.5237
 1837.4 1328.74885 472.00000 -302.49750 0 768.40 0 229.67058  10.67147  5015.59065  4877.87061  98561.5584
 1837.2 1330.27980 472.00000 -285.60330 0 753.50 0 228.87468  10.37415  4875.85038  5156.89805  98005.4877
 1837.0 1331.78155 477.50000 -285.26085 0 739.90 0 227.25802   9.45610  4444.36509  5353.60536  95165.1369
 1836.8 1333.26245 483.00000 -292.45230 0 763.60 0 227.11811   9.94641  4674.81144  4825.28916  93765.6705
 1836.6 1334.79570 483.00000 -279.32505 0 783.95 0 227.10810  11.09640  5215.30655  4702.38689  90932.6498
 1836.4 1336.33405 483.00000 -302.72580 0 750.95 0 228.18930  12.00935  5644.39275  5084.54085  89073.3208
 1836.2 1337.82260 483.00000 -295.64850 0 740.30 0 227.58513  10.70468  5031.20107  4291.25733  92438.3069
 1836.0 1339.32105 483.00000 -282.97785 0 763.55 0 226.41498   9.72124  4568.98428  5057.33345  96524.6865
 1835.8 1340.86680 472.00000 -298.38810 0 749.95 0 227.59521  10.03104  4714.58955  5873.53218  98630.4727
 1835.6 1342.36830 472.00000 -271.22040 0 744.10 0 228.02134  10.27447  4828.99960  5367.97463  95143.1031
 1835.4 1343.86140 472.00000 -284.91840 0 763.10 0 228.85960  10.64862  5004.85350  4766.83880  89328.2983
 1835.2 1345.38775 472.00000 -301.81260 0 757.50 0 230.63754  10.02250  4710.57469  4507.84467  88958.6596
 1835.0 1346.89600 472.00000 -296.44755 0 776.70 0 234.54371  10.85359  5101.18951  4367.18881  90890.7001
 1834.8 1348.41540 477.50000 -286.63065 0 745.50 0 233.08522  11.31126  5316.29022  4568.37815  92449.7819
 1834.6 1349.92735 483.00000 -288.68535 0 769.40 0 231.94642  10.52050  4944.63399  5350.67563  92064.5137
 1834.4 1351.45545 477.50000 -287.54385 0 748.70 0 233.10202   9.66554  4542.80418  4800.98962  94821.1262
 1834.2 1352.97315 472.00000 -293.93625 0 738.35 0 231.65031   9.90309  4654.45266  4989.26860  99104.0301
 1834.0 1354.45810 472.00000 -289.48440 0 767.00 0 232.32024  11.80331  5547.55779  5933.77787  99464.9049
 1833.8 1355.99070 472.00000 -271.79115 0 750.85 0 232.89113   9.86704  4637.50666  5881.78071  97233.7530
 1833.6 1357.48780 472.00000 -280.00995 0 748.30 0 236.43805   8.86335  4165.77600  5497.97322  99127.4219
 1833.4 1358.98525 472.00000 -282.74955 0 778.60 0 231.16997   9.19643  4322.32390  5102.72653  98348.0498
 1833.2 1360.52660 472.00000 -294.27870 0 760.90 0 234.43207  10.20199  4794.93528  5251.93174  95147.3725
 1833.0 1362.03945 477.50000 -292.90890 0 749.30 0 250.91941  10.07096  4733.35104  6044.87405  98069.6007
 1832.8 1363.53415 483.00000 -295.07775 0 750.30 0 250.75318   9.76178  4588.03866  5913.47495  99796.5945
 1832.6 1365.07175 477.50000 -288.57120 0 763.10 0 249.38200   9.22175  4334.22408  5975.71633  98142.9632
 1832.4 1366.59460 472.00000 -292.45230 0 753.30 0 250.40409   8.55892  4022.69439  5213.74012  90354.1137
 1832.2 1368.09460 477.50000 -297.36075 0 737.95 0 261.87593   6.99412  3287.23430  4247.60874  85803.5190
 1832.0 1369.57630 483.00000 -323.95770 0 761.10 0 269.05314   7.94776  3735.44604  4054.01834  87092.2792
 1831.8 1371.10465 483.00000 -306.03615 0 789.90 0 267.73058   7.86832  3698.10857  4578.17236  91885.4691
 1831.6 1372.65325 461.00000 -301.81260 0 756.65 0 262.19656   8.38354  3940.26268  4654.52916  98637.7861
 1831.4 1374.15530 461.00000 -281.26560 0 747.85 0 247.31630   8.50480  3997.25520  5043.54768 101590.4330
 1831.2 1375.66910 472.00000 -306.49275 0 769.30 0 243.94497   8.22591  3866.17681  5792.23343  99409.1782
 1831.0 1377.22410 479.33333 -297.36075 0 751.40 0 238.30420   8.43737  3965.56430  5698.31893 100579.5240
 1830.8 1378.72615 483.00000 -303.41070 0 746.45 0 238.34979   7.64511  3593.20363  5476.73125 101113.3920
