~Version Information Section
# This file generated by the LAST component (v1.2.08). Tver. R.E.A. 1999-2005
VERS. 2.0 : CWLS LOG ASCII STANDARD - VERSION 2.0"
WRAP. NO  :
~Well Information Section
STRT.M   2025.60 : Начальная Глубина
STOP.M   0700.00 : Конечная  Глубина
  STEP.M                          -0.2 : Шаг по Глубине
NULL.      -9999 : Признак "Нет данных"
DATE.  16.05.2024                                : Дата
TIME.  13:40:02 - 17:08:39                       : Время
~Curve Information Section
DEPT.M                   : Г Л У Б И Н А , м
TIME.S                   : В Р Е М Я , сек
SPID.M/H                 : Скорость м/ч
TENS.KG                  : Натяжение кабеля, кг
METKA.                   : =1 - Магнитная Метка
DTIME.MS                 : Интервальное Время,мс
MARKER.                  : Код маркера
CALI. MM                 : Поправленный Диаметр
GK.MKR                   : Cчет ГК
GK.IMP/M                 : Счет ГК  в имп/мин
NNKBZ.IMP/M              : Счет ННК БЗ в имп/мин
NNKMZ.IMP/M              : Счет ННК МЗ в имп/мин
~A Log data section
# ...
  900.6 7935.32810 547.00000 -274.75905 0 650.75 0 216.68292   5.16878  2429.32738  3840.00327  80356.1257
  900.4 7936.65240 547.00000 -303.63900 0 646.40 0 216.59284   5.47590  2573.67102  4232.64654  82138.3142
  900.2 7937.94540 536.00000 -283.54860 0 658.70 0 216.19320   5.03400  2365.97978  4417.92755  81506.1187
  900.0 7939.29125 535.16667 -274.18830 0 704.60 0 216.13712   6.49081  3050.68049  4039.28224  81529.9537
  899.8 7940.64830 538.08333 -310.94460 0 653.20 0 215.72115   6.69661  3147.40631  3739.33899  81805.6142
  899.6 7941.97190 547.00000 -291.99570 0 655.10 0 215.36123   6.85489  3221.80021  3988.16393  82631.0233
  899.4 7943.29810 547.00000 -259.23465 0 667.25 0 215.14270   7.12645  3349.43364  3653.56815  82553.4153
  899.2 7944.62890 536.00000 -285.26085 0 701.50 0 214.96325   6.72204  3159.35802  4004.20421  81613.3855
  899.0 7945.99990 541.50000 -299.75790 0 651.80 0 214.92020   5.38308  2530.04821  3793.37465  80341.9778
  898.8 7947.33315 547.00000 -288.34290 0 664.85 0 214.56010   5.78793  2720.32831  3509.54081  79683.5262
  898.6 7948.66315 547.00000 -278.06940 0 658.40 0 214.56331   5.26496  2474.53075  3867.85303  81143.6529
  898.4 7949.97695 547.00000 -260.60445 0 650.40 0 214.33233   5.66130  2660.81109  3576.45542  82394.3811
  898.2 7951.27450 547.00000 -276.58545 0 658.25 0 214.09461   6.03129  2834.70536  3262.87195  83118.7272
  898.0 7952.59765 541.50000 -293.02305 0 684.55 0 213.63660   6.67305  3136.33144  3461.96862  82036.2939
  897.8 7953.93710 536.00000 -293.82210 0 650.05 0 213.54771   6.29924  2960.64423  3521.14475  81984.3002
  897.6 7955.23445 547.00000 -306.83520 0 649.55 0 213.36070   6.31439  2967.76367  3938.22618  81756.1438
  897.4 7956.54795 547.00000 -260.14785 0 672.45 0 212.94836   6.22393  2925.24648  4216.90024  83770.7472
  897.2 7957.90745 547.00000 -284.57595 0 656.35 0 212.87303   6.48484  3047.87584  4272.62575  83634.4987
  897.0 7959.22115 547.00000 -281.60805 0 652.10 0 212.89223   7.27457  3419.04699  4183.65310  85226.1398
  896.8 7960.52280 547.00000 -289.71270 0 663.75 0 211.89437   7.80400  3667.88149  4023.47124  84523.7061
  896.6 7961.85630 547.00000 -279.09675 0 660.40 0 212.16772   7.07952  3327.37460  3939.71999  85331.3984
  896.4 7963.17395 538.75000 -287.20140 0 679.55 0 212.31867   6.59972  3101.87010  3904.31684  83666.1251
  896.2 7964.50220 538.75000 -287.77215 0 655.50 0 212.16379   6.43153  3022.82084  4374.77640  81841.5093
  896.0 7965.82270 548.83333 -278.75430 0 663.55 0 212.38580   6.62751  3114.93131  4336.91953  81290.7029
  895.8 7967.14725 547.00000 -302.04090 1 653.70 0 212.66626   6.53185  3069.96794  3741.70445  83215.1977
  895.6 7968.47260 547.00000 -270.64965 0 645.25 0 212.42858   5.93837  2791.03188  3821.29019  81562.0658
  895.4 7969.77050 547.00000 -276.58545 0 664.45 0 212.53927   6.39119  3003.85835  3322.65902  80428.7186
  895.2 7971.10450 541.50000 -293.36550 0 668.20 0 212.68543   6.15030  2890.63881  4144.57070  80874.8688
  895.0 7972.43105 536.00000 -296.67585 0 653.55 0 212.62385   6.16822  2899.06312  4094.79939  82550.3485
  894.8 7973.73930 547.00000 -293.47965 0 683.20 0 212.70493   5.57210  2618.88500  4073.65099  83368.7237
  894.6 7975.09170 547.00000 -292.33815 0 667.05 0 212.66082   5.68616  2672.49480  4118.69711  82199.1936
  894.4 7976.41985 547.00000 -288.91365 0 655.60 0 212.64215   5.35546  2517.06472  3996.90454  81249.0678
  894.2 7977.72580 547.00000 -268.82325 0 649.95 0 212.74749   5.23059  2458.37903  3522.20555  81360.6939
  894.0 7979.05450 547.00000 -270.64965 0 667.50 0 212.75291   5.05143  2374.17045  3815.46327  81614.7454
  893.8 7980.39180 547.00000 -273.50340 0 658.85 0 212.89303   5.33036  2505.26852  4357.19663  81454.9404
  893.6 7981.70125 547.00000 -261.51765 0 647.25 0 213.94866   5.30983  2495.61968  4671.27310  82699.8875
  893.4 7982.99690 547.00000 -276.12885 0 657.00 0 213.63745   5.35500  2516.84833  4578.04206  81004.6228
  893.2 7984.31775 547.00000 -283.32030 0 685.60 0 213.41643   5.76352  2708.85390  4192.31423  82949.5251
  893.0 7985.66185 547.00000 -259.46295 0 653.55 0 213.08742   6.35867  2988.57423  4532.14102  80698.9484
  892.8 7986.96295 547.00000 -280.80900 0 653.15 0 212.83647   7.06159  3318.94877  4316.93880  79950.8407
  892.6 7988.27940 547.00000 -301.58430 0 669.10 0 212.92291   5.99977  2819.89012  3852.27080  82938.8108
  892.4 7989.63640 547.00000 -277.27035 0 654.20 0 212.73319   5.23491  2460.40793  4343.49163  84363.6296
  892.2 7990.94595 541.50000 -276.35715 0 651.75 0 212.57334   5.97739  2809.37517  4175.77650  81963.5718
  892.0 7992.24615 536.00000 -283.09200 0 660.90 0 213.08424   6.83126  3210.69163  3849.10510  80229.7872
  891.8 7993.57705 547.00000 -262.20255 0 688.00 0 213.11284   6.80549  3198.58190  4079.75953  80368.4131
  891.6 7994.92225 547.00000 -275.67225 0 655.90 0 212.74791   5.92051  2782.64106  3966.59837  80683.1232
  891.4 7996.22740 547.00000 -276.92790 0 650.15 0 212.54569   6.00852  2824.00360  3562.58405  80050.0325
  891.2 7997.54010 547.00000 -319.73415 0 665.80 0 213.08452   5.87351  2760.55129  3691.18986  83911.9194
  891.0 7998.86495 536.00000 -273.73170 0 651.75 0 213.55639   6.45193  3032.40794  3834.86215  85498.1419
  890.8 8000.19215 536.00000 -252.95640 0 650.15 0 213.71290   5.80690  2729.24176  4103.74470  83383.4766
  890.6 8001.49705 536.00000 -276.58545 0 672.50 0 213.70969   5.07482  2385.16311  3786.43654  81130.1289
  890.4 8002.84185 536.00000 -286.05990 0 663.55 0 214.02899   5.29194  2487.21197  3596.21146  79699.4691
  890.2 8004.16405 536.00000 -319.73415 0 678.15 0 214.24636   4.78317  2248.08906  3601.48402  80334.0540
  890.0 8005.53675 547.00000 -298.15980 0 676.05 0 213.99772   5.66528  2662.68328  3501.21379  80182.0589
  889.8 8006.88255 547.00000 -297.01830 0 668.80 0 213.98602   7.21652  3391.76660  3793.74392  80938.0299
  889.6 8008.21050 547.00000 -296.90415 0 656.25 0 216.02562   6.64638  3123.80027  4330.31348  82243.3097
  889.4 8009.51960 547.00000 -296.90415 0 652.15 0 217.69540   6.59135  3097.93649  4256.02565  82693.8803
  889.2 8010.83045 547.00000 -307.17765 0 690.00 0 215.05682   6.54138  3074.44928  3799.22692  80300.2219
  889.0 8012.18940 547.00000 -310.03140 0 657.95 0 214.32802   6.35986  2989.13637  3525.18959  80437.3854
  888.8 8013.49935 547.00000 -289.71270 0 648.80 0 213.98682   6.51906  3063.95604  3920.95349  81989.3863
  888.6 8014.79630 543.33333 -280.35240 0 658.95 0 214.10542   7.36295  3460.58647  3990.13313  80671.8464
  888.4 8016.14875 532.66667 -285.94575 0 670.20 0 214.61694   6.55385  3080.30967  3740.54958  78806.5404
  888.2 8017.48060 526.00000 -307.17765 0 657.40 0 214.13648   6.10088  2867.41143  3830.86485  78751.5429
  888.0 8018.79140 526.00000 -275.44395 0 654.25 0 213.84308   5.94125  2792.38665  3881.06300  79086.9036
  887.8 8020.10780 547.00000 -286.40235 0 715.70 0 214.17590   5.69897  2678.51742  3476.06453  78403.6222
  887.6 8021.53695 547.00000 -305.92200 0 658.55 0 213.47309   5.97806  2809.68753  3966.46489  77948.1073
  887.4 8022.85340 547.00000 -301.81260 0 653.35 0 213.29110   6.29574  2958.99805  3696.57042  78510.9103
  887.2 8024.16165 547.00000 -291.08250 0 666.70 0 213.46397   5.34226  2510.86339  3406.12290  79277.5128
  887.0 8025.49910 547.00000 -306.49275 0 664.50 0 213.40654   4.95785  2330.18974  3518.24160  80952.0245
  886.8 8026.81900 536.00000 -259.46295 0 675.45 0 213.42373   5.59407  2629.21149  3064.76513  81175.5307
  886.6 8028.14250 536.00000 -277.15620 0 649.00 0 213.35466   5.45020  2561.59568  3182.30456  80940.3341
  886.4 8029.44785 536.00000 -325.44165 0 667.30 0 213.64130   5.80535  2728.51555  3775.32823  80271.9720
  886.2 8030.78295 547.00000 -328.18125 0 658.25 0 213.90059   5.69465  2676.48638  3481.82970  79637.5615
  886.0 8032.12270 547.00000 -289.37025 0 657.50 0 213.84865   5.95192  2797.40300  2809.73499  77961.6041
  885.8 8033.43925 547.00000 -269.85060 1 671.45 0 213.46429   6.46226  3037.26303  3534.98493  79610.9104
