~Version Information Section
# This file generated by the LAST component (v1.2.08). Tver. R.E.A. 1999-2005
VERS. 2.0 : CWLS LOG ASCII STANDARD - VERSION 2.0"
WRAP. NO  :
~Well Information Section
STRT.M   2025.60 : Начальная Глубина
STOP.M   0700.00 : Конечная  Глубина
  STEP.M                          -0.2 : Шаг по Глубине
NULL.      -9999 : Признак "Нет данных"
DATE.  16.05.2024                                : Дата
TIME.  13:40:02 - 17:08:39                       : Время
~Curve Information Section
DEPT.M                   : Г Л У Б И Н А , м
TIME.S                   : В Р Е М Я , сек
SPID.M/H                 : Скорость м/ч
TENS.KG                  : Натяжение кабеля, кг
METKA.                   : =1 - Магнитная Метка
DTIME.MS                 : Интервальное Время,мс
MARKER.                  : Код маркера
CALI. MM                 : Поправленный Диаметр
GK.MKR                   : Cчет ГК
GK.IMP/M                 : Счет ГК  в имп/мин
NNKBZ.IMP/M              : Счет ННК БЗ в имп/мин
NNKMZ.IMP/M              : Счет ННК МЗ в имп/мин
~A Log data section
# ...
 1065.6 6821.46890 522.33333 -280.92315 1 669.25 0 215.40139   8.43119  3962.65728  4510.30050  84098.7283
 1065.4 6822.81405 515.00000 -268.93740 0 686.75 0 217.67654   9.79768  4604.90795  4202.34458  84812.6741
 1065.2 6824.19170 525.83333 -302.95410 0 712.70 0 217.74294   7.95565  3739.15770  3859.26863  82611.7071
 1065.0 6825.58145 532.66667 -279.66750 0 673.80 0 220.31548   8.47970  3985.45845  4175.93657  79823.7736
 1064.8 6826.92990 532.66667 -312.88515 0 686.00 0 222.62148  10.98949  5165.06006  3317.41214  77181.2934
 1064.6 6828.30805 522.33333 -292.56645 0 684.80 0 224.71660  11.63968  5470.64745  3376.79089  77285.9900
 1064.4 6829.67345 518.66667 -270.87795 0 675.45 0 225.27884  10.57298  4969.29895  3440.58523  75200.4662
 1064.2 6831.04530 536.00000 -307.29180 0 674.15 0 226.34382   9.92700  4665.68823  3302.08094  76267.6327
 1064.0 6832.40140 536.00000 -295.19190 0 690.30 0 226.82154   9.84467  4626.99442  3002.66712  76927.0425
 1063.8 6833.77745 531.00000 -288.91365 0 674.50 0 225.87955   9.49830  4464.20181  3445.41354  76342.3532
 1063.6 6835.12365 526.00000 -257.86485 0 687.25 0 224.54099  10.08847  4741.57987  3582.11331  77969.1513
 1063.4 6836.47515 520.50000 -297.36075 0 682.05 0 221.02178  10.39352  4884.95237  3770.49975  79017.2143
 1063.2 6837.84845 515.00000 -306.49275 0 684.00 0 220.72799   8.73868  4107.18010  4271.04112  79544.3699
 1063.0 6839.20890 525.83333 -268.36665 0 676.65 0 216.55783   8.30778  3904.65489  4256.80908  81706.9781
 1062.8 6840.55955 532.66667 -311.62950 0 674.40 0 213.12606   8.64438  4062.85667  4562.43476  81646.9659
 1062.6 6841.94425 536.00000 -291.19665 0 692.05 0 214.34240   8.31968  3910.25191  3768.23955  79746.9653
 1062.4 6843.32175 531.00000 -284.91840 0 677.25 0 226.21031   9.95820  4680.35244  3570.21194  79819.5171
 1062.2 6844.67295 526.00000 -277.38450 0 671.85 0 230.55135   9.60496  4514.33039  3885.46315  86372.6964
 1062.0 6846.02150 526.00000 -309.91725 0 712.05 0 231.42093   7.02836  3303.32909  4572.06084  96640.5344
 1061.8 6847.42325 536.00000 -298.27395 0 684.10 0 221.29954   5.72579  2691.12359  5025.04451  95461.2171
 1061.6 6848.78420 532.66667 -302.72580 0 672.20 0 219.07474   6.54830  3077.69933  4989.30194  91073.1662
 1061.4 6850.12040 522.33333 -284.91840 0 670.00 0 232.70276   6.88482  3235.86767  4603.32503  85897.5895
 1061.2 6851.47050 515.00000 -263.68650 0 684.65 0 236.15325   7.17862  3373.95135  4925.28525  85545.6625
 1061.0 6852.86205 525.83333 -273.38925 0 670.90 0 234.12790   7.31910  3439.97869  5155.81093  90611.2562
 1060.8 6854.20670 532.66667 -297.70320 0 672.85 0 228.59449   7.02461  3301.56681  4713.28174  90652.4896
 1060.6 6855.55715 536.00000 -308.20500 0 690.60 0 218.77242   6.85107  3220.00474  4242.74353  90946.1044
 1060.4 6856.93700 531.00000 -294.27870 0 708.65 0 217.47246   6.42040  3017.58593  5441.74503  97350.4004
 1060.2 6858.32285 526.00000 -269.62230 0 671.50 0 215.81631   6.53094  3069.54155  5939.03887  96808.8670
 1060.0 6859.71350 526.00000 -267.56760 0 702.95 0 218.40045   6.78831  3190.50777  5508.11919  95154.6951
 1059.8 6861.10655 526.00000 -266.19780 0 686.10 0 221.53487   7.60094  3572.44259  5831.47694  94114.5048
 1059.6 6862.46960 526.00000 -269.16570 0 698.50 0 223.77106   7.09650  3335.35411  6356.31450  94691.3656
 1059.4 6863.83920 526.00000 -267.56760 0 670.25 0 223.55328   5.91944  2782.13767  5528.68999  93938.0749
 1059.2 6865.18915 526.00000 -306.03615 0 685.55 0 221.23974   5.99857  2819.32831  4569.31495  87392.5502
 1059.0 6866.55405 526.00000 -258.54975 0 674.10 0 228.95496   7.09109  3332.81210  4589.32997  83253.1610
 1058.8 6867.90020 526.00000 -290.74005 0 667.85 0 231.09063   7.03072  3304.44029  4548.36858  82340.5039
 1058.6 6869.26720 536.00000 -300.67110 0 685.65 0 234.04056   5.69369  2676.03281  4397.81872  85308.8934
 1058.4 6870.64495 532.66667 -296.21925 0 687.35 0 226.74655   5.81871  2734.79209  4660.82422  89628.9658
 1058.2 6872.01095 524.16667 -289.59855 0 675.45 0 219.92916   5.77704  2715.21038  4670.57214  91380.1844
 1058.0 6873.35555 526.00000 -282.63540 0 696.35 0 218.65499   4.78172  2247.40724  4681.64799  90222.5390
 1057.8 6874.73520 526.00000 -267.22515 0 690.95 0 218.45794   5.21077  2449.06260  5232.30200  87693.9795
 1057.6 6876.11160 536.00000 -272.47605 0 678.00 0 219.54144   5.61860  2640.74010  4621.52531  89002.5421
 1057.4 6877.46560 536.00000 -283.66275 0 671.90 0 220.19212   5.25714  2470.85554  4916.00649  89671.6048
 1057.2 6878.81370 531.00000 -262.20255 0 686.10 0 220.94567   6.16478  2897.44889  5805.99609  92202.4027
 1057.0 6880.20920 526.00000 -316.08135 0 675.90 0 221.46508   6.63950  3120.56318  4912.96524  89931.4359
 1056.8 6881.55215 526.00000 -271.56285 0 667.60 0 220.44617   5.53787  2602.79954  4802.40717  88201.3593
 1056.6 6882.88515 526.00000 -325.66995 0 671.15 0 219.32864   5.76768  2710.80908  5567.97462  90534.7810
 1056.4 6884.24240 526.00000 -298.61640 0 714.70 0 218.78877   7.10439  3339.06367  5467.38273  91137.6105
 1056.2 6885.64000 526.00000 -283.89105 0 675.50 0 221.65968   6.09692  2865.55427  5583.86302  91718.1449
 1056.0 6886.99225 526.00000 -292.79475 0 671.80 0 220.86576   5.11170  2402.50019  5584.18913  91787.4125
 1055.8 6888.34165 526.00000 -299.75790 0 691.20 0 219.13871   5.71786  2687.39388  5279.40425  92067.3526
 1055.6 6889.72045 536.00000 -299.64375 1 677.80 0 217.98825   6.20857  2918.02651  5022.59532  92105.5552
 1055.4 6891.09560 536.00000 -304.55220 0 671.25 0 217.15030   5.67060  2665.18319  4508.47157  90221.4193
 1055.2 6892.43650 531.00000 -289.48440 0 679.00 0 217.61669   6.24958  2937.30106  4560.60958  86456.2300
 1055.0 6893.80725 526.00000 -319.84830 0 687.25 0 218.04099   6.33250  2976.27442  4195.95454  84156.1762
 1054.8 6895.17200 526.00000 -294.62115 0 693.15 0 217.58789   4.82007  2265.43358  4051.49151  83342.8371
 1054.6 6896.52675 526.00000 -291.19665 0 664.70 0 217.12785   4.49238  2111.41868  3847.75026  86395.8333
 1054.4 6897.87315 526.00000 -297.13245 0 690.40 0 216.86565   5.79880  2725.43817  4287.37131  87194.3082
 1054.2 6899.24905 526.00000 -321.67470 0 677.40 0 216.57152   6.89361  3239.99776  5265.25306  91967.2696
 1054.0 6900.59985 526.83333 -284.11935 0 669.20 0 220.02711   6.83039  3210.28404  5034.96079  93146.3075
 1053.8 6901.96220 523.91667 -276.35715 0 686.45 0 220.60063   6.57218  3088.92345  4951.76957  88556.9405
 1053.6 6903.34210 515.00000 -299.30130 0 683.10 0 217.99315   6.66483  3132.47219  4641.58048  88542.6796
 1053.4 6904.70035 515.00000 -276.69960 0 674.25 0 219.22820   6.46132  3036.81937  4768.33614  88692.7132
 1053.2 6906.04435 526.00000 -289.82685 0 697.60 0 218.63353   6.02864  2833.45855  5149.78734  86389.2933
 1053.0 6907.42750 526.00000 -277.84110 0 712.80 0 219.52782   6.10917  2871.30944  4696.79424  88329.5435
 1052.8 6908.87410 531.00000 -286.28820 0 675.15 0 219.16318   4.96228  2332.27367  4999.20030  87326.2290
 1052.6 6910.22095 536.00000 -296.90415 0 665.50 0 219.86345   5.68206  2670.56988  5065.05516  87906.5881
 1052.4 6911.55055 536.00000 -277.84110 0 703.95 0 218.41057   6.97817  3279.73952  4990.51641  91034.1327
 1052.2 6912.93955 526.00000 -270.07890 0 678.10 0 215.67115   5.63965  2650.63641  4824.35922  87461.5391
 1052.0 6914.29110 526.00000 -315.51060 0 673.45 0 217.78164   6.02840  2833.34875  5028.21152  89169.6746
 1051.8 6915.63550 526.00000 -291.88155 0 677.25 0 217.05113   6.73460  3165.26239  5265.69141  92563.2536
 1051.6 6917.00125 526.00000 -299.07300 0 687.65 0 217.83564   6.31979  2970.29939  5983.48111  91641.2665
 1051.4 6918.39405 526.00000 -280.69485 0 675.75 0 216.22423   6.10153  2867.71773  5501.15404  86086.2183
 1051.2 6919.74185 526.00000 -273.96000 0 669.00 0 216.28672   5.79452  2723.42364  4767.92216  88893.8284
 1051.0 6921.08945 526.00000 -285.60330 0 690.50 0 215.40278   6.11404  2873.60040  4976.72942  89806.4732
 1050.8 6922.46525 526.00000 -294.27870 0 702.10 0 217.43039   5.72113  2688.93277  5319.91939  87868.6071
