~Version Information Section
# This file generated by the LAST component (v1.2.08). Tver. R.E.A. 1999-2005
VERS. 2.0 : CWLS LOG ASCII STANDARD - VERSION 2.0"
WRAP. NO  :
~Well Information Section
STRT.M   2025.60 : Начальная Глубина
STOP.M   0700.00 : Конечная  Глубина
  STEP.M                          -0.2 : Шаг по Глубине
NULL.      -9999 : Признак "Нет данных"
DATE.  16.05.2024                                : Дата
TIME.  13:40:02 - 17:08:39                       : Время
~Curve Information Section
DEPT.M                   : Г Л У Б И Н А , м
TIME.S                   : В Р Е М Я , сек
SPID.M/H                 : Скорость м/ч
TENS.KG                  : Натяжение кабеля, кг
METKA.                   : =1 - Магнитная Метка
DTIME.MS                 : Интервальное Время,мс
MARKER.                  : Код маркера
CALI. MM                 : Поправленный Диаметр
GK.MKR                   : Cчет ГК
GK.IMP/M                 : Счет ГК  в имп/мин
NNKBZ.IMP/M              : Счет ННК БЗ в имп/мин
NNKMZ.IMP/M              : Счет ННК МЗ в имп/мин
~A Log data section
# ...
 1410.6 4464.31840 520.50000 -314.71155 0 681.25 0 245.24205  10.70716  5032.36724  5445.86535 101645.1300
 1410.4 4465.67280 515.00000 -337.31325 0 686.30 0 233.26008   7.81317  3672.18925  5341.53506 102171.3500
 1410.2 4467.06410 515.00000 -301.58430 0 725.70 0 228.47115   8.07269  3794.16538  5238.53342 101353.2520
 1410.0 4468.53215 516.83333 -320.53320 0 715.10 0 225.04013   9.41302  4424.12138  5317.53486 100347.9220
 1409.8 4469.93515 525.08333 -314.25495 0 678.85 0 222.42261   8.97910  4220.17815  5239.64991 102160.2410
 1409.6 4471.30230 526.00000 -328.52370 0 704.45 0 219.67322   9.44103  4437.28526  4976.27584  99260.0945
 1409.4 4472.70750 520.50000 -330.57840 0 717.65 0 229.95889   9.95552  4679.09383  5272.45435  98546.5916
 1409.2 4474.11600 515.00000 -300.67110 0 685.80 0 231.91812   9.43816  4435.93349  5087.78786 103352.7870
 1409.0 4475.48080 526.00000 -324.41430 0 691.70 0 223.18655   8.61919  4051.02023  5439.76675 107731.5640
 1408.8 4476.87570 526.00000 -323.72940 0 695.50 0 223.36246   8.69045  4084.51065  5671.46806 105516.8090
 1408.6 4478.25535 515.00000 -316.88040 0 681.35 0 222.28919   8.21551  3861.29190  5510.91387 102287.9540
 1408.4 4479.64045 515.00000 -331.26330 0 681.20 0 219.85865   8.52721  4007.79033  5248.90097 103749.4600
 1408.2 4481.01390 515.00000 -303.52485 0 705.10 0 219.49123   9.46498  4448.54025  4940.54555  98724.9633
 1408.0 4482.42335 515.00000 -322.24545 0 692.90 0 223.19340  10.50109  4935.51287  5227.98402  96687.3313
 1407.8 4483.80685 515.00000 -312.88515 0 709.75 0 228.49639   9.44087  4437.20915  5092.39735  96151.9954
 1407.6 4485.20580 515.00000 -337.31325 0 697.55 0 230.51218  10.14264  4767.04225  4888.22613  95730.6849
 1407.4 4486.60365 515.00000 -320.19075 0 699.95 0 231.27660   9.39447  4415.39969  4697.06279  94253.5728
 1407.2 4487.99460 520.50000 -318.47850 0 685.70 0 232.80120  10.86356  5105.87208  4806.52983  95457.3672
 1407.0 4489.36460 526.00000 -317.10870 0 687.05 0 233.35263  13.17056  6190.16325  5165.44084  99285.4296
 1406.8 4490.76885 526.00000 -313.45590 0 700.40 0 231.92543  11.18343  5256.20996  5869.20042 100788.9380
 1406.6 4492.16715 515.00000 -304.55220 0 684.50 0 230.30906   9.62887  4525.57001  5825.49989 103412.7990
 1406.4 4493.52990 515.00000 -299.87205 0 676.95 0 229.40387   9.44921  4441.12828  6268.48304 106431.9740
 1406.2 4494.89430 515.00000 -296.44755 0 723.75 0 229.28356   7.68265  3610.84584  5799.86327 104280.2190
 1406.0 4496.31785 520.50000 -307.29180 0 695.80 0 228.87805   7.36284  3460.53384  5353.15736 100981.6320
 1405.8 4497.70340 526.00000 -311.62950 1 688.55 0 228.08460   6.76148  3177.89506  5530.19573 100151.5010
 1405.6 4499.07655 526.00000 -342.33585 0 687.50 0 227.68325   7.13242  3352.23625  4995.14696 102025.6940
 1405.4 4500.48640 515.00000 -294.05040 0 701.65 0 227.19353   7.43807  3495.89368  5515.18637 103030.5290
 1405.2 4501.88710 515.00000 -303.41070 0 690.25 0 226.88946   6.52309  3065.85376  5257.28231 102046.5330
 1405.0 4503.26475 515.00000 -313.79835 0 687.75 0 226.55277   6.64795  3124.53743  5112.92791  99076.6032
 1404.8 4504.64470 515.00000 -301.24185 0 700.55 0 225.89058   7.54672  3546.95622  5084.57725 101269.3170
 1404.6 4506.04405 515.00000 -325.44165 0 713.50 0 223.52626   7.66428  3602.21196  4976.68664  99032.3266
 1404.4 4507.43780 515.00000 -323.95770 0 676.20 0 222.92606   8.03185  3774.96979  4651.99272  98649.8831
 1404.2 4508.79155 515.00000 -311.17290 0 689.40 0 223.56408   8.72037  4098.57248  4506.56858 102047.6530
 1404.0 4510.18275 515.00000 -309.34650 0 699.85 0 226.43226   9.35765  4398.09666  4734.20769 102291.0930
 1403.8 4511.59875 515.00000 -307.29180 0 689.85 0 226.38395   9.06146  4258.88528  4489.89697 103516.6350
 1403.6 4512.97460 515.00000 -306.72105 0 683.50 0 230.15112   8.85692  4162.75189  4563.44153 101832.3930
 1403.4 4514.35435 515.00000 -328.98030 0 707.30 0 229.81044   8.22894  3867.60104  4912.18146  97789.1296
 1403.2 4515.76220 515.00000 -332.97555 0 689.85 0 232.01521   8.30564  3903.65070  4617.30110  94433.3923
 1403.0 4517.14120 515.00000 -350.21220 0 707.40 0 237.81241   8.32341  3912.00442  5006.11937  95037.7680
 1402.8 4518.52895 526.00000 -314.48325 0 696.50 0 243.80929   8.47088  3981.31401  5089.00335  98079.7809
 1402.6 4519.93335 520.50000 -339.25380 0 698.50 0 244.54824   7.30264  3432.24012  4812.49346  95663.4997
 1402.4 4521.31695 515.00000 -341.19435 0 682.40 0 241.98414   8.13060  3821.38296  4484.95648  90542.0680
 1402.2 4522.70020 515.00000 -312.77100 0 681.15 0 243.10812   8.07822  3796.76106  4428.99191  88123.6145
 1402.0 4524.07805 515.00000 -329.66520 0 702.45 0 243.23448   7.02417  3301.35900  4434.75539  88791.5054
 1401.8 4525.48125 515.00000 -301.47015 0 695.65 0 238.00252   7.73253  3634.29018  4955.95096  89893.4586
 1401.6 4526.86825 515.00000 -309.34650 0 679.80 0 228.31213   7.16243  3366.33978  4856.56777  93881.9644
 1401.4 4528.23130 515.00000 -292.68060 0 727.45 0 224.83830   6.99969  3289.85463  4986.20134  97256.4522
 1401.2 4529.66360 515.00000 -337.88400 0 695.90 0 222.65914   7.68305  3611.03186  5517.41448  98503.9033
 1401.0 4531.04935 515.00000 -317.67945 0 688.05 0 224.01978   7.81409  3672.62305  5262.14744 100926.6740
 1400.8 4532.42025 526.00000 -311.62950 0 686.80 0 223.75603   6.93934  3261.48850  4737.65372 100117.9250
 1400.6 4533.83340 526.00000 -306.15030 0 703.00 0 219.04583   7.59565  3569.95479  4901.58394  99436.6053
 1400.4 4535.23040 515.00000 -326.35485 0 685.60 0 218.16774   8.95779  4210.16200  5210.96391 100775.5680
 1400.2 4536.59745 515.00000 -345.30375 0 671.65 0 219.34597   8.09898  3806.52070  4686.77420  99955.6378
 1400.0 4537.97200 515.00000 -304.66635 0 747.60 0 220.23002   8.48390  3987.43387  4955.61496 101008.0050
 1399.8 4539.42060 515.00000 -317.90775 0 695.60 0 216.86755   8.26837  3886.13396  5298.97824 103186.9170
 1399.6 4540.83040 516.83333 -312.77100 0 684.70 0 215.71319   9.00491  4232.30716  5575.20271 100843.4460
 1399.4 4542.19890 519.58333 -309.57480 0 693.70 0 218.31940   7.31313  3437.17000  5267.28281  99292.7049
 1399.2 4543.59935 515.00000 -313.22760 0 704.40 0 218.40462   7.03694  3307.36260  4960.35655  97160.0438
 1399.0 4544.99695 515.00000 -320.87565 0 713.35 0 217.66026   6.83124  3210.68153  4926.93912  95691.5941
 1398.8 4546.39695 525.50000 -319.50585 0 684.35 0 217.42148   7.03774  3307.73770  4330.77933  94317.0816
 1398.6 4547.77635 536.00000 -321.10395 0 705.85 0 218.70394   6.44660  3029.90113  4467.10702  92438.6475
 1398.4 4549.18345 516.66667 -318.93510 0 691.40 0 225.67488   6.46910  3040.47623  4708.50157  94981.7995
 1398.2 4550.58235 515.00000 -310.94460 0 680.90 0 235.90648   6.99844  3289.26591  4594.79406  94766.7572
 1398.0 4551.94510 515.00000 -307.63425 0 685.40 0 236.19650   6.90124  3243.58238  5226.08933  92676.4377
 1397.8 4553.33220 515.00000 -325.32750 0 705.80 0 235.56874   6.93932  3261.47892  5159.19241  90208.2446
 1397.6 4554.72990 520.50000 -294.73530 0 687.80 0 236.01450   6.97621  3278.81697  4545.59728  93374.2602
 1397.4 4556.10250 526.00000 -317.79360 0 714.90 0 235.01255   7.85493  3691.81645  4223.83120  94319.1604
 1397.2 4557.51835 526.00000 -318.70680 0 701.80 0 231.50941   7.48314  3517.07499  4568.92756  92738.2472
 1397.0 4558.92000 515.00000 -329.66520 0 691.25 0 228.27745   7.26292  3413.57309  4955.23704  89269.7936
 1396.8 4560.29800 515.00000 -313.11345 0 684.50 0 228.02754   7.46154  3506.92215  4713.34412  95394.6476
 1396.6 4561.69450 515.91667 -313.91250 0 696.45 0 227.30595   6.66599  3133.01564  5005.81658  95291.6092
 1396.4 4563.09215 511.33333 -337.42740 0 701.65 0 224.73142   6.16322  2896.71509  5378.03985  97780.2980
 1396.2 4564.48440 507.66667 -318.25020 0 684.90 0 222.55870   5.80355  2727.66680  5575.95833 101450.4250
 1396.0 4565.84755 513.16667 -314.82570 0 681.75 0 221.24495   6.09176  2863.12697  5539.38648 108013.6220
 1395.8 4567.23025 515.00000 -304.32390 1 728.80 0 227.02764   7.61702  3579.99989  5936.36215 105999.9320
