~Version Information Section
# This file generated by the LAST component (v1.2.08). Tver. R.E.A. 1999-2005
VERS. 2.0 : CWLS LOG ASCII STANDARD - VERSION 2.0"
WRAP. NO  :
~Well Information Section
STRT.M   2025.60 : Начальная Глубина
STOP.M   0700.00 : Конечная  Глубина
  STEP.M                          -0.2 : Шаг по Глубине
NULL.      -9999 : Признак "Нет данных"
DATE.  16.05.2024                                : Дата
TIME.  13:40:02 - 17:08:39                       : Время
~Curve Information Section
DEPT.M                   : Г Л У Б И Н А , м
TIME.S                   : В Р Е М Я , сек
SPID.M/H                 : Скорость м/ч
TENS.KG                  : Натяжение кабеля, кг
METKA.                   : =1 - Магнитная Метка
DTIME.MS                 : Интервальное Время,мс
MARKER.                  : Код маркера
CALI. MM                 : Поправленный Диаметр
GK.MKR                   : Cчет ГК
GK.IMP/M                 : Счет ГК  в имп/мин
NNKBZ.IMP/M              : Счет ННК БЗ в имп/мин
NNKMZ.IMP/M              : Счет ННК МЗ в имп/мин
~A Log data section
# ...
  720.6 9112.24165 558.00000 -291.65325 0 637.55 0 226.32081   5.56009  2613.24020  2664.07369  65242.1730
  720.4 9113.52935 558.00000 -271.79115 0 647.90 0 226.21576   5.66997  2664.88589  2799.33149  66239.8094
  720.2 9114.82050 558.00000 -272.47605 0 642.45 0 226.15899   5.00835  2353.92295  2883.50675  65119.3767
  720.0 9116.12250 552.50000 -273.73170 0 684.65 0 226.28106   4.20850  1977.99392  2638.63717  66448.0163
  719.8 9117.48275 547.00000 -308.43330 0 656.95 0 226.35442   5.03745  2367.60165  2517.55255  68328.0429
  719.6 9118.78885 558.00000 -291.65325 0 639.65 0 226.35739   5.21182  2449.55699  2335.40753  68558.1846
  719.4 9120.06525 558.00000 -311.97195 0 636.70 0 226.37288   4.02310  1890.85759  2922.15327  68002.7703
  719.2 9121.33815 558.00000 -273.96000 0 668.20 0 226.35551   3.81681  1793.90205  2970.98244  66213.1319
  719.0 9122.65875 558.00000 -277.72695 0 646.40 0 226.38947   3.57520  1680.34168  2784.25188  69137.3885
  718.8 9123.94635 569.00000 -269.05155 0 637.70 0 226.40162   3.48919  1639.91777  2699.61676  71691.4393
  718.6 9125.22010 569.00000 -283.20615 0 632.35 0 226.36539   3.76927  1771.55719  2841.01642  70611.9870
  718.4 9126.49115 558.00000 -305.69370 0 646.40 0 226.45929   3.88581  1826.33248  3117.00894  69452.1004
  718.2 9127.79975 547.00000 -301.24185 0 635.70 0 226.41879   3.43076  1612.45579  3119.90557  70179.5213
  718.0 9129.07150 547.00000 -270.19305 0 636.10 0 226.33746   3.18039  1494.78495  2997.01630  67426.9880
  717.8 9130.34570 558.00000 -255.12525 0 648.55 0 226.18528   2.83423  1332.08893  2783.29093  67308.7522
  717.6 9131.64835 558.00000 -311.51535 0 670.75 0 226.13009   3.63970  1710.65811  2694.01904  70523.6706
  717.4 9132.96305 558.00000 -281.60805 0 639.70 0 226.11300   4.23866  1992.16792  2587.75521  73563.5551
  717.2 9134.23965 558.00000 -282.97785 0 644.40 0 226.11220   3.88155  1824.32713  2550.59027  71167.6911
  717.0 9135.53835 558.00000 -309.00405 0 649.10 0 226.08872   3.93284  1848.43629  2646.35439  69665.1188
  716.8 9136.82620 563.50000 -307.40595 0 636.55 0 226.12547   3.54322  1665.31259  2943.98372  69214.7599
  716.6 9138.11965 569.00000 -264.37140 0 635.85 0 226.10449   3.80584  1788.74587  2750.72375  67815.8546
  716.4 9139.39805 569.00000 -297.47490 0 649.25 0 226.12523   4.18879  1968.73047  2667.32739  67988.5111
  716.2 9140.69370 548.83333 -274.30245 0 637.80 0 226.10864   3.93147  1847.79225  2198.62378  68332.2521
  716.0 9141.96540 556.16667 -289.02780 0 649.05 0 226.10142   3.59619  1690.21012  2347.05372  68740.3847
  715.8 9143.24650 558.00000 -271.44870 0 648.00 0 226.13353   3.72814  1752.22410  2733.57038  71307.2424
  715.6 9144.54490 558.00000 -305.23710 1 645.90 0 226.10685   4.09464  1924.48049  2845.69159  68097.4866
  715.4 9145.83440 558.00000 -317.56530 0 641.70 0 226.09858   4.53639  2132.10165  2926.98457  67913.0257
  715.2 9147.11440 558.00000 -322.01715 0 637.35 0 226.11297   3.92757  1845.95610  3132.29979  70535.6368
  715.0 9148.42125 558.00000 -301.69845 0 654.50 0 226.11316   3.83197  1801.02625  2891.02380  69141.6753
  714.8 9149.72625 558.00000 -310.48800 0 644.35 0 226.10734   3.86847  1818.17957  2964.02751  66783.6894
  714.6 9151.01060 558.00000 -298.04565 0 637.40 0 226.10155   4.64217  2181.82072  3303.31542  69950.3824
  714.4 9152.28310 558.00000 -307.52010 1 668.60 0 226.10930   4.08412  1919.53846  2779.11417  69381.7845
  714.2 9153.60705 558.00000 -282.17880 0 646.40 0 226.13120   3.68656  1732.68163  2647.91758  68416.8185
  714.0 9154.89160 558.00000 -272.36190 0 635.05 0 226.10096   4.28332  2013.15829  2654.78227  67507.8532
  713.8 9156.16170 558.00000 -291.76740 0 633.85 0 226.10546   4.49441  2112.37316  2811.48899  66461.5375
  713.6 9157.48225 558.00000 -306.72105 0 692.75 0 226.11048   3.78873  1780.70220  2775.64696  67814.0020
  713.4 9158.81580 549.75000 -304.09560 0 637.65 0 226.14060   3.77948  1776.35518  3441.33325  68830.5594
  713.2 9160.09255 558.91667 -313.22760 0 636.65 0 226.12071   3.57872  1681.99855  2540.22109  69439.7907
  713.0 9161.37225 563.50000 -247.02060 0 655.60 0 226.12743   3.01992  1419.36074  2414.10579  68560.5911
  712.8 9162.68090 558.00000 -320.87565 0 645.55 0 226.12771   4.34005  2039.82353  2984.51072  67713.2021
  712.6 9163.98905 550.66667 -323.04450 0 637.65 0 226.09371   4.07474  1915.12661  3128.75416  70057.4342
  712.4 9165.26395 552.50000 -282.97785 0 643.90 0 226.10053   4.03239  1895.22404  3128.05691  69042.3814
  712.2 9166.56100 558.00000 -267.68175 0 649.35 0 226.10821   5.27379  2478.68139  3083.24547  72234.4719
  712.0 9167.85395 558.00000 -287.88630 0 663.75 0 226.10770   6.21574  2921.39619  3062.11089  70009.5363
  711.8 9169.15510 569.00000 -272.24775 0 634.10 0 226.11766   5.23723  2461.49905  2963.30036  70406.3776
  711.6 9170.42980 565.33333 -279.43920 0 650.75 0 226.11790   4.01387  1886.51771  2871.05038  72271.4446
  711.4 9171.72750 554.33333 -264.02895 0 638.85 0 226.08335   3.99429  1877.31463  3288.79543  70075.6125
  711.2 9173.00250 550.66667 -289.59855 0 630.30 0 226.12045   4.53488  2131.39518  2620.71429  70730.2752
  711.0 9174.28730 556.16667 -288.68535 0 648.35 0 226.12241   4.01282  1886.02659  2808.23394  73173.0183
  710.8 9175.59320 558.00000 -282.97785 0 651.05 0 226.22811   4.75172  2233.30683  3048.61892  75569.0909
  710.6 9176.88605 552.50000 -293.59380 0 640.40 0 226.18317   4.38542  2061.14949  2458.15459  72885.1512
  710.4 9178.16335 547.00000 -289.02780 0 661.70 0 227.40048   4.16403  1957.09508  2442.61890  72052.6319
  710.2 9179.47615 558.00000 -327.83880 0 655.65 0 226.08249   3.91638  1840.69828  3064.41519  71212.3837
  710.0 9180.82470 558.00000 -260.94690 0 662.80 0 226.07031   4.14044  1946.00882  3322.18192  70318.0601
  709.8 9182.12580 558.00000 -290.85420 0 636.40 0 226.07472   3.82281  1796.71871  2921.67500  68792.0982
  709.6 9183.39840 558.00000 -329.09445 0 669.35 0 226.08172   3.53884  1663.25276  2810.36464  71292.5046
  709.4 9184.72035 558.00000 -273.27510 0 642.85 0 226.08596   3.87975  1823.48367  3238.21397  69764.5291
  709.2 9186.00020 569.00000 -287.65800 0 634.00 0 226.06975   3.86600  1817.02008  3426.17158  70972.0163
  709.0 9187.26820 569.00000 -283.89105 0 633.05 0 226.06581   5.21876  2452.81943  3191.70284  72480.9307
  708.8 9188.54405 558.00000 -299.41545 0 652.10 0 226.07669   5.10810  2400.80624  3256.63128  72466.5831
  708.6 9189.86370 547.00000 -294.39285 0 640.80 0 226.04193   4.03202  1895.04748  3491.89968  70266.1392
  708.4 9191.14270 547.00000 -294.73530 0 638.10 0 226.06641   3.59709  1690.63234  3397.63668  70689.6399
  708.2 9192.42725 558.00000 -295.53435 0 653.80 0 226.11447   3.35441  1576.57143  3158.27491  69916.3215
  708.0 9193.73175 558.00000 -282.74955 0 667.10 0 226.11158   3.69098  1734.75872  2844.98067  69274.2145
  707.8 9195.03950 558.00000 -303.18240 0 637.70 0 226.09655   4.48280  2106.91477  2904.45494  70910.7865
  707.6 9196.31355 558.00000 -308.88990 0 640.45 0 226.10629   4.38421  2060.58101  2932.84742  71404.6904
  707.4 9197.60115 569.00000 -295.07775 0 648.25 0 226.08286   3.91781  1841.37082  2892.06338  68716.9877
  707.2 9198.89455 569.00000 -318.59265 0 639.70 0 226.08114   4.92173  2313.21373  2674.12170  70498.3781
  707.0 9200.18835 563.50000 -272.13360 0 631.95 0 226.08722   4.21128  1979.30113  2915.15017  67800.0226
  706.8 9201.46430 558.00000 -307.40595 0 648.35 0 226.09225   3.62531  1703.89649  2640.43836  68116.4512
  706.6 9202.75510 547.00000 -274.87320 0 638.35 0 226.06586   4.47033  2101.05650  2480.02723  68590.1613
  706.4 9204.03035 547.00000 -301.58430 0 654.60 0 226.06866   4.33854  2039.11556  3076.92742  66305.7825
  706.2 9205.32085 552.50000 -293.82210 0 648.25 0 226.06073   5.01444  2356.78508  3033.43755  66663.5362
  706.0 9206.62415 558.00000 -285.60330 0 651.65 0 226.04033   4.38352  2060.25635  3120.21287  68900.4847
  705.8 9207.91945 558.00000 -301.58430 0 640.40 0 226.06827   4.54968  2138.35002  3033.21509  70857.0856
