~Version information
# This file generated by the LAST component (v1.3.0). Tver. R.E.A. 1999-2008
  VERS.                                             2.0 : CWLS LAS Version
  WRAP.                                              NO : Wrap mode
~Well information
  STRT.M                                             47 : Started at
  STOP.M                                         2016.4 : Stopped at
  STEP.M                                            0.2 : Step
  NULL.                                          -32768 : Null value
  COMP.                          ООО "Газпромгеоресурс" : Company
  WELL.                        Мест. Акшабулак Скв. 494 : Well
  FLD .                                       Акшабулак : Field
  CTRY.                                          Россия : Country
  SRVC.                                            ГЕРС : Service company
  DATE.                                      24.04.2024 : Date
~Curve information
  DEPTH.                                                : 
  S123456.м.                                            : Тальблок
  S200.т.                                               : Вес на крюке
  S300.атм.                                             : Давление нагн.
  S720.м3                                               : Сум.объем в емк
  S800.°С                                               : Темпер. на вх.
  S900.°С                                               : Темпер. на вых.
  S1200.мин-1                                           : Обороты рот.
  S50 .мин-1                                            : Ходы 1 нас.
  S51 .мин-1                                            : Ходы 2 нас.
  S1001.л/c                                             : Расх на вх.
  S106.м/ч                                              : Скорость бур.
  S107.мин/м                                            : ДМК
  S202.т.                                               : Нагрузка на дол
~Other information
~ASCII Log data
# ...
 1349.2  8.18965 44.56580  89.02208 50.48834 40.57381 41.15507   0.00000 105.75360   0.00000 26.11031  13.21195  4.54134  2.73421
 1349.4  7.99187 44.42745  90.78072 50.79780 40.59364 41.16161   0.00000 106.75729   0.00000 26.35812  15.68680  3.82487  2.87255
 1349.6  7.78988 44.31625  89.90974 51.03682 40.61274 41.16056   0.00000 106.58127   0.00000 26.31466  12.54043  4.78452  2.98375
 1349.8  7.59207 44.43641  89.85771 51.24478 40.63854 41.11758   0.00000 106.09375   0.00000 26.19429  10.26461  5.84533  2.86359
 1350.0  7.38988 44.64414  93.20693 51.27542 40.63745 41.17151   0.00000 106.75418   0.00000 26.35735  21.89390  2.74049  2.65586
 1350.2  7.19082 44.60508  91.80656 51.37069 40.63141 41.14939   0.00000 106.50318   0.00000 26.29538  23.08067  2.59958  2.69492
 1350.4  6.99172 44.57966  90.05160 51.53617 40.62994 41.15550   0.00000 106.60098   0.00000 26.31952  12.58314  4.76829  2.72034
 1350.6  6.79262 43.93708  91.57372 51.66392 40.63002 41.17393   0.00000 106.84335   0.00000 26.37936  17.06705  3.51554  3.36291
 1350.8  6.58965 44.16343  90.14208 51.75887 40.62785 41.17245   0.00000 106.26626   0.00000 26.23688  17.90081  3.35180  3.13657
 1351.0  6.39055 44.28625  90.39994 51.94757 40.62747 41.18939   0.00000 105.93018   0.00000 26.15391  28.01842  2.14145  3.01375
 1351.2  6.19148 44.39774  91.10179 51.99783 40.62355 41.18925   0.00000 105.72893   0.00000 26.10422  28.21954  2.12619  2.90226
 1351.4  5.99238 44.20013  91.65814 51.95076 40.62201 41.19363   0.00000 105.59293   0.00000 26.07064  30.89565  1.94202  3.09986
 1351.6  5.79719 44.74585  91.17288 52.01473 40.62239 41.20939   0.00000 105.56213   0.00000 26.06304  31.43494  1.90870  2.55415
 1351.8  5.59031 44.26311  91.75484 52.20620 40.62457 41.18326   0.00000 105.49595   0.00000 26.04669  38.44058  1.56085  3.03689
 1352.0  5.39121 44.48497  90.61153 52.25624 40.62617 41.20741   0.00000 105.97473   0.00000 26.16491  18.76353  3.19769  2.81503
 1352.2  5.19215 44.05637  93.94447 52.40148 40.62811 41.21890   0.00000 106.70120   0.00000 26.34427  24.73401  2.42581  3.24362
 1352.4  4.99305 43.27348  91.60485 52.71878 40.63748 41.23834   0.00000 106.67328   0.00000 26.33738   6.42259  9.34203  4.02652
 1352.6  4.79004 43.51435  94.14679 53.08050 40.65159 41.20763   0.00000 105.79919   0.00000 26.12156  14.00047  4.28557  3.78565
 1352.8  4.59098 42.55137  92.13219 53.23981 40.66303 41.22095   0.00000 105.58125   0.00000 26.06775  12.22411  4.90833  4.74863
 1353.0  4.39187 43.96288  91.91031 54.52315 40.71362 41.23391   9.55622 105.87589   0.00000 26.14050   4.97769 12.05378  3.33817
 1353.2  4.19281 47.11337  96.78339 57.50276 40.83453 41.30638  38.30586 105.46787   0.00000 26.03976  15.10002  3.97351  0.29501
 1353.4  3.98980 47.56242  94.90432 57.74326 40.83962 41.32556  38.30781 105.38438   0.00000 26.01915  17.22655  3.48300  0.07875
 1353.6  3.79070 47.60664  96.44753 58.08181 40.84410 41.32845  38.33270 106.31172   0.00000 26.24811  16.83460  3.56409  0.08879
 1353.8  3.59164 47.38289  97.27428 58.47742 40.85545 41.33270  38.25645 106.50349   0.00000 26.29546  14.39340  4.16858  0.12808
 1354.0  3.39254 47.36406  97.14829 58.46988 40.86411 41.34371  38.19058 106.14397   0.00000 26.20669  22.12322  2.71208  0.03036
 1354.2  3.19348 47.56694  96.82700 58.60757 40.87188 41.35180  38.16318 106.01369   0.00000 26.17452  28.44351  2.10944  0.00000
 1354.4  2.99047 47.71059  95.66380 58.77047 40.87712 41.35904  34.65628 105.77028   0.00000 26.11443  20.06569  2.99018  0.01130
 1354.6  2.79137 46.51480  99.73548 58.97737 40.88634 41.46902  32.58977 105.29697   0.00000 25.99757  26.86902  2.23305  0.78732
 1354.8  2.59230 46.34448 101.66750 59.26474 40.89362 41.46685  32.83522 105.05174   0.00000 25.93702  17.14831  3.49889  0.95552
 1355.0  2.39320 46.80809  98.45630 59.48550 40.90672 41.47947  32.94888 105.86261   0.00000 26.13722  12.49499  4.80192  0.49209
 1355.2  2.19023 46.89243  99.71389 59.82866 40.91447 41.47781  32.91873 106.34466   0.00000 26.25624  13.83357  4.33727  0.40757
 1355.4 11.43840 47.59401  95.44727 60.55782 40.96614 41.49288  34.28780 106.27612   0.00000 26.23932   6.60841  9.07934  0.09575
 1355.6 11.23641 48.07922  95.59222 61.63562 41.08355 41.48544  40.28953 106.95965   0.00000 26.40808  10.57115  5.67583  0.00000
 1355.8 11.03859 47.84727  97.28833 61.57898 41.09699 41.51900  40.39352 107.35780   0.00000 26.50638  16.63312  3.60726  0.00005
 1356.0 10.83660 47.71845  95.96878 61.77261 41.11417 41.53163  40.26587 106.86321   0.00000 26.38427  10.26733  5.84378  0.04568
 1356.2 10.63883 47.70362  96.85120 61.72796 41.13989 41.53169  40.23245 106.67304   0.00000 26.33732   9.64595  6.22023  0.00037
 1356.4 10.43684 47.87805  97.30679 61.96605 41.16270 41.55761  40.35017 107.55009   0.00000 26.55386  15.96327  3.75863  0.00000
 1356.6 10.23484 47.54395  97.73808 61.46988 41.17723 41.57353  40.24436 107.17207   0.00000 26.46052  21.76096  2.75723  0.00669
 1356.8 10.03707 47.49762  97.59339 61.47568 41.18971 41.59347  40.15314 106.84414   0.00000 26.37956  21.08990  2.84496  0.00110
 1357.0  9.83508 47.68333  96.98595 61.74701 41.20878 41.63794  40.14969 106.69069   0.00000 26.34167  12.11486  4.95259  0.02354
 1357.2  9.63727 47.79694  98.34749 61.60236 41.23611 41.69786  40.21131 107.16927   0.00000 26.45983  11.70988  5.12388  0.01030
 1357.4  9.43527 45.24421  93.90378 61.60867 41.49225 41.87199   9.12890 107.42396   0.00000 26.52271   4.82899 12.42495  3.70733
 1357.6  9.23750 44.21099  96.87832 61.51294 41.65875 42.01927   0.00000 107.54936   0.00000 26.55368  11.60128  5.17184  5.10901
 1357.8  9.03551 43.97948  97.34341 61.47947 41.70562 42.04018   0.17823 107.30285   0.00000 26.49281   8.95739  6.69838  5.34051
 1358.0  8.83770 43.69523  95.94988 61.47299 41.74445 42.08216   0.10720 106.96436   0.00000 26.40924   5.27034 11.38447  5.62477
 1358.2  8.63570 44.03225  97.69489 61.43121 41.78009 42.13807   0.00000 107.06330   0.00000 26.43367  11.21220  5.35131  5.28776
 1358.4  8.43793 42.87411  94.73093 61.39507 41.81270 42.17506   0.00000 106.82123   0.00000 26.37390   5.68640 10.55150  6.44589
 1358.6  8.23594 43.31414  97.88320 61.76612 41.87986 42.19643   0.00000 107.18767   0.00000 26.46438   7.85475  7.63869  6.00586
 1358.8  8.04234 43.53888  95.11011 62.28921 41.96550 42.25372   0.14813 107.38940   0.00000 26.51418   3.64909 16.44245  5.78112
 1359.0  7.83617 44.56782  93.82838 62.26150 42.01956 42.32685   0.09000 107.07562   0.00000 26.43671   4.52661 13.25496  4.75218
 1359.2  7.63836 43.33695  95.27142 62.19822 42.07696 42.37030   0.26555 107.02608   0.00000 26.42448   6.54351  9.16939  5.98305
 1359.4  7.43672 43.80044  96.82598 62.20370 42.11776 42.40928   0.00000 106.28510   0.00000 26.24153  10.69513  5.61003  5.51956
 1359.6  7.23766 44.65137  98.28458 62.18581 42.12502 42.42801   0.00000 107.00354   0.00000 26.41891  21.85407  2.74548  4.66863
 1359.8  7.03465 44.39854  98.27206 62.18769 42.13299 42.42337   0.00000 107.46741   0.00000 26.53345  15.14476  3.96177  4.92146
 1360.0  6.83559 44.34354  99.62580 62.20469 42.13934 42.42789   0.00000 106.85966   0.00000 26.38339  19.17926  3.12838  4.97646
 1360.2  6.63648 44.14960  97.43301 62.15147 42.14802 42.45366   0.00000 106.52989   0.00000 26.30197  15.58148  3.85073  5.17040
 1360.4  6.43738 43.92833  94.37027 62.13647 42.16223 42.56090   0.00000 106.88198   0.00000 26.38890   6.61231  9.07398  5.39167
 1360.6  6.23832 43.68708  95.19638 61.99831 42.18962 42.52913   0.00000 106.37975   0.00000 26.26490   7.43986  8.06467  5.63292
 1360.8  6.03531 43.28566  98.44703 61.97743 42.19304 42.50693   0.00000 106.42977   0.00000 26.27725  12.18662  4.92343  6.03434
 1361.0  5.83625 43.93646 102.76477 61.85122 42.19880 42.51138   0.78585 106.50762   0.00000 26.29647  16.36374  3.66664  5.38354
 1361.2  5.63715 44.19050 102.03739 61.86093 42.20145 42.48957   0.00000 106.71947   0.00000 26.34878  28.56678  2.10034  5.12950
 1361.4  5.43805 43.14735  93.95139 61.92957 42.19791 42.52411   2.84270 106.41451   0.00000 26.27349   4.71518 12.72486  6.17265
