~Version information
# This file generated by the LAST component (v1.3.0). Tver. R.E.A. 1999-2008
  VERS.                                             2.0 : CWLS LAS Version
  WRAP.                                              NO : Wrap mode
~Well information
  STRT.M                                             47 : Started at
  STOP.M                                         2016.4 : Stopped at
  STEP.M                                            0.2 : Step
  NULL.                                          -32768 : Null value
  COMP.                          ООО "Газпромгеоресурс" : Company
  WELL.                        Мест. Акшабулак Скв. 494 : Well
  FLD .                                       Акшабулак : Field
  CTRY.                                          Россия : Country
  SRVC.                                            ГЕРС : Service company
  DATE.                                      24.04.2024 : Date
~Curve information
  DEPTH.                                                : 
  S123456.м.                                            : Тальблок
  S200.т.                                               : Вес на крюке
  S300.атм.                                             : Давление нагн.
  S720.м3                                               : Сум.объем в емк
  S800.°С                                               : Темпер. на вх.
  S900.°С                                               : Темпер. на вых.
  S1200.мин-1                                           : Обороты рот.
  S50 .мин-1                                            : Ходы 1 нас.
  S51 .мин-1                                            : Ходы 2 нас.
  S1001.л/c                                             : Расх на вх.
  S106.м/ч                                              : Скорость бур.
  S107.мин/м                                            : ДМК
  S202.т.                                               : Нагрузка на дол
~Other information
~ASCII Log data
# ...
 1485.6  5.18406 51.17847 103.03222 66.30428 41.32591 42.85352  38.48731   0.00000 107.32906 26.49928  12.70073  4.72414  2.00153
 1485.8  4.98496 51.05231 103.71487 66.32813 41.34267 42.86119  38.36985   0.00000 107.39429 26.51539   9.63449  6.22763  2.12769
 1486.0  4.78195 51.37970 103.75967 66.30665 41.35807 42.87110  38.43849   0.00000 107.48003 26.53656  18.83484  3.18559  1.80030
 1486.2  4.58289 51.03876 104.57363 66.35989 41.36930 42.88351  38.45823   0.00000 106.94005 26.40324  17.92969  3.34641  2.14124
 1486.4  4.38379 50.81424 104.53098 66.44981 41.38069 42.88160  38.40806   0.00000 107.27250 26.48532  11.93927  5.02543  2.36576
 1486.6  4.18473 50.79976 104.50879 66.43069 41.39374 42.89904  38.40027   0.00000 107.45374 26.53007  13.48384  4.44977  2.38025
 1486.8  3.98172 50.94376 104.65844 66.50120 41.40651 42.91386  38.32708   0.00000 107.43516 26.52548  15.65055  3.83373  2.23624
 1487.0  3.78262 50.91530 105.36602 66.54586 41.41975 42.90791  38.46001   0.00000 106.86257 26.38411  18.10061  3.31481  2.26470
 1487.2  3.58355 50.89042 105.55954 66.56036 41.42568 42.92628  38.42632   0.00000 106.75228 26.35688  18.27365  3.28342  2.28958
 1487.4  3.38445 50.44340 105.64610 66.46170 41.43703 42.92819  38.26637   0.00000 107.05681 26.43207  18.87336  3.17909  2.73660
 1487.6  3.18148 51.15884 104.41225 66.50774 41.44897 42.94188  28.78734   0.00000 107.77116 26.60844  13.33669  4.49887  2.02116
 1487.8  2.98238 50.93707 104.69341 66.19433 41.47684 42.96588  31.70056   0.00000 107.06020 26.43290  13.73107  4.36965  2.24293
 1488.0  2.78328 50.56735 106.30180 66.21747 41.49869 43.00027  39.45413   0.00000 106.57098 26.31212  21.86609  2.74397  2.61265
 1488.2  2.58422 50.45829 106.36480 66.20835 41.50633 42.11818  39.44881   0.00000 106.58331 26.31516  22.14577  2.70932  2.72171
 1488.4  2.38121 50.53003 105.90673 66.25868 41.51509 41.08598  39.53927   0.00000 107.66959 26.58336  18.66045  3.21536  2.64997
 1488.6  2.18215 50.29047 104.48911 66.21447 41.52305 41.49283  39.59996   0.00000 108.38128 26.75908  15.12541  3.96683  2.88953
 1488.8 11.38762 51.48735 100.09162 66.12157 41.13502 41.78741  33.87379   0.00000 107.90999 26.64272   5.13776 11.67824  1.72876
 1489.0 11.18563 51.06701  94.41576 65.75073 39.60999 42.34443  39.31681   0.00000 103.09323 25.45347  29.93058  2.00464  2.28799
 1489.2 10.98363 51.31803  91.47024 65.72811 39.66285 42.30050  39.45310   0.00000 104.56744 25.81745  11.96189  5.01593  2.03697
 1489.4 10.78164 51.19309  93.13585 65.86635 39.72517 42.29438  39.42643   0.00000 104.40669 25.77776  18.74037  3.20164  2.16191
 1489.6 10.58383 50.91910  94.23406 66.06249 39.76425 42.30761  39.33968   0.00000 104.21963 25.73157  26.39520  2.27314  2.43590
 1489.8 10.38184 50.66563  93.07693 65.75931 39.80177 42.31502  39.37179   0.00000 104.38725 25.77296  23.32915  2.57189  2.68937
 1490.0 10.17984 51.10820  91.24583 65.77931 39.84827 42.34863  39.30627   0.00000 104.72231 25.85568  16.07558  3.73237  2.24680
 1490.2  9.98207 51.03260  92.98724 66.29994 39.89524 42.36449  39.26657   0.00000 104.79252 25.87302  19.62024  3.05807  2.32240
 1490.4  9.78430 50.49417  95.88986 65.76283 39.93370 42.37424  39.19051   0.00000 104.30893 25.75362  23.74512  2.52684  2.86083
 1490.6  9.58230 50.82072  94.17379 65.74723 39.96586 42.38363  39.18683   0.00000 105.49405 26.04622  17.53569  3.42159  2.53428
 1490.8  9.38031 50.84250  95.62582 65.74889 39.99636 42.40882  39.17139   0.00000 105.18670 25.97034  22.34395  2.68529  2.51250
 1491.0  9.18250 50.66209  95.34791 65.73888 40.02988 42.40735  39.16396   0.00000 105.57732 26.06678  20.95157  2.86375  2.69291
 1491.2  8.98473 50.74140  95.03909 65.74689 40.06239 42.40927  39.22250   0.00000 105.57558 26.06635  18.53991  3.23626  2.61360
 1491.4  8.78273 50.80493  94.54030 65.67054 40.09528 42.43888  39.19969   0.00000 105.80569 26.12317  18.45619  3.25094  2.55007
 1491.6  8.58074 51.30867  92.26974 65.93375 40.13279 42.44971  39.38797   0.00000 106.56580 26.31084  12.53778  4.78554  2.04633
 1491.8  8.38293 51.42488  90.86146 65.74870 40.17538 42.47285  39.29976   0.00000 106.78550 26.36508  14.16755  4.23503  1.93012
 1492.0  8.18516 50.79286  93.46503 65.74893 40.20941 42.48539  39.23373   0.00000 105.97804 26.16572  17.99236  3.33475  2.56214
 1492.2  7.98316 50.51442  96.09069 65.65994 40.23046 42.48952  39.17459   0.00000 104.99992 25.92423  26.34936  2.27710  2.84058
 1492.4  7.78117 50.73545  93.13451 65.86968 40.25190 42.49709  39.27103   0.00000 106.17055 26.21325  18.09416  3.31599  2.61955
 1492.6  7.58758 50.81247  93.48824 65.75369 40.27760 42.50390  39.24422   0.00000 106.01918 26.17588  19.13593  3.13546  2.54254
 1492.8  7.38570 50.48927  94.64640 65.74627 40.29895 42.51370  39.15430   0.00000 105.84690 26.13334  26.06590  2.30186  2.86573
 1493.0  7.18664 50.17656  95.72326 65.63593 40.31607 42.52535  39.14198   0.00000 105.56449 26.06362  22.42163  2.67599  3.17844
 1493.2  6.98363 50.16357  95.27058 65.64874 40.33334 42.52964  39.11945   0.00000 105.84193 26.13212  25.49168  2.35371  3.19143
 1493.4  6.78062 51.93278  87.69654 65.95223 40.38182 42.57810  39.33324   0.00000 107.42721 26.52352   4.49313 13.35371  1.42222
 1493.6  6.58156 50.30999  94.86234 65.63912 40.43004 42.60590  39.16171   0.00000 105.70470 26.09824  27.77663  2.16009  3.04502
 1493.8  6.38246 50.08611  94.44449 65.63296 40.44613 42.61560  39.12290   0.00000 105.84190 26.13211  23.29060  2.57615  3.26889
 1494.0  6.19121 50.22176  94.51800 65.55846 40.46266 42.62273  39.19149   0.00000 105.88297 26.14225  23.25602  2.57998  3.13324
 1494.2  5.98039 50.29874  93.74744 65.71097 40.47583 42.63148  39.19818   0.00000 106.07267 26.18909  19.54091  3.07048  3.05626
 1494.4  5.78520 50.44794  93.66435 65.74018 40.49281 42.63342  39.18554   0.00000 106.22868 26.22760  20.95816  2.86285  2.90706
 1494.6  5.58223 50.38384  93.38955 65.70778 40.50838 42.64211  39.20828   0.00000 106.28617 26.24180  23.13342  2.59365  2.97116
 1494.8  5.38312 49.92458  94.13215 65.65825 40.52039 42.64317  39.16315   0.00000 106.08113 26.19117  24.04807  2.49500  3.43042
 1495.0  5.18406 50.07455  93.92775 65.58523 40.53469 42.65536  39.20758   0.00000 106.22036 26.22555  20.90421  2.87024  3.28045
 1495.2  4.98105 50.02782  93.95794 65.64773 40.55054 42.66600  39.24366   0.00000 106.21684 26.22468  21.12352  2.84044  3.32718
 1495.4  4.78195 50.11806  93.90006 65.70934 40.56632 42.68671  39.14936   0.00000 106.24074 26.23058  19.30508  3.10799  3.23694
 1495.6  4.58289 50.28070  92.34110 65.62654 40.58398 42.68850  39.15717   0.00000 106.19302 26.21880  18.65096  3.21699  3.07430
 1495.8  4.37988 50.30220  93.55042 65.84302 40.59702 42.69789  39.11204   0.00000 106.03339 26.17939  21.16658  2.83466  3.05280
 1496.0  4.18082 50.51971  92.35087 65.88820 40.61219 42.71010  39.08340   0.00000 106.21871 26.22514  18.45574  3.25102  2.83529
 1496.2  3.98172 50.85865  90.55109 65.65226 40.63447 42.72247  39.05724   0.00000 106.62071 26.32440  11.74997  5.10640  2.49635
 1496.4  3.79043 50.72123  91.99052 65.66808 40.65274 42.74015  38.99464   0.00000 106.20789 26.22247  20.14685  2.97813  2.63377
 1496.6  3.57965 50.21791  93.67078 65.75095 40.66939 42.73818  39.10636   0.00000 105.98998 26.16867  20.83895  2.87922  3.13709
 1496.8  3.38055 49.84227  95.98488 65.81519 40.68188 42.74579  39.02029   0.00000 105.56563 26.06390  27.76594  2.16092  3.51273
 1497.0  3.18148 49.64373  96.04059 65.65917 40.69814 42.75331  39.03455   0.00000 105.42307 26.02870  24.05437  2.49435  3.71127
 1497.2  2.98238 49.49159  97.04057 65.60838 40.70608 42.75089  39.06502   0.00000 105.28887 25.99557  28.51382  2.10424  3.86341
 1497.4  2.79109 49.49987  97.39639 65.64928 40.71766 42.75047  38.96324   0.00000 105.16615 25.96527  25.27919  2.37349  3.85513
 1497.6  2.58031 49.38858  91.70959 65.66153 40.73835 42.78213  20.93357   0.00000 106.30679 26.24689  12.05998  4.97513  3.96642
 1497.8  2.38121 49.88919  92.67163 65.72749 40.76311 42.77917  21.63605   0.00000 105.93716 26.15563  13.05804  4.59487  3.46581
