~Version information
# This file generated by the LAST component (v1.3.0). Tver. R.E.A. 1999-2008
  VERS.                                             2.0 : CWLS LAS Version
  WRAP.                                              NO : Wrap mode
~Well information
  STRT.M                                             47 : Started at
  STOP.M                                         2016.4 : Stopped at
  STEP.M                                            0.2 : Step
  NULL.                                          -32768 : Null value
  COMP.                          ООО "Газпромгеоресурс" : Company
  WELL.                        Мест. Акшабулак Скв. 494 : Well
  FLD .                                       Акшабулак : Field
  CTRY.                                          Россия : Country
  SRVC.                                            ГЕРС : Service company
  DATE.                                      24.04.2024 : Date
~Curve information
  DEPTH.                                                : 
  S123456.м.                                            : Тальблок
  S200.т.                                               : Вес на крюке
  S300.атм.                                             : Давление нагн.
  S720.м3                                               : Сум.объем в емк
  S800.°С                                               : Темпер. на вх.
  S900.°С                                               : Темпер. на вых.
  S1200.мин-1                                           : Обороты рот.
  S50 .мин-1                                            : Ходы 1 нас.
  S51 .мин-1                                            : Ходы 2 нас.
  S1001.л/c                                             : Расх на вх.
  S106.м/ч                                              : Скорость бур.
  S107.мин/м                                            : ДМК
  S202.т.                                               : Нагрузка на дол
~Other information
~ASCII Log data
# ...
  444.0  3.30246 30.00998  54.87147 49.01331 28.75396 28.47527  92.39977 119.98624   0.00000 29.39963  71.72910  0.83648  2.38002
  444.2  3.10340 30.08239  55.06691 48.91718 28.75752 28.47761  92.33970 119.96603   0.00000 29.39468  65.25677  0.91944  2.30761
  444.4  2.90820 29.54424  55.17722 48.91958 28.75601 28.48041  92.42834 120.36620   0.00000 29.49273  64.00108  0.93748  2.84576
  444.6  2.70133 29.19340  55.46349 48.95144 28.75833 28.47650  92.57478 121.09280   0.00000 29.67076  71.59119  0.83809  3.19660
  444.8  2.50223 29.59596  55.92597 48.91135 28.75750 28.47970  92.68609 121.59826   0.00000 29.79461  53.22166  1.12736  2.79404
  445.0  2.30312 29.67198  56.01477 49.00737 28.76010 28.48188  92.90629 121.68848   0.00000 29.81672  59.71985  1.00469  2.71802
  445.2 11.57699 30.99494  55.63136 48.87268 28.76186 28.48525  93.12648 120.77068   0.00000 29.59184  16.96086  3.53756  1.42401
  445.4 11.37918 31.84686  55.19922 48.71088 28.75267 28.44563  93.34668 119.56618   0.00000 29.29670  32.56064  1.84272  0.74314
  445.6 11.18563 31.36321  55.05222 48.52843 28.75164 28.44847  93.56688 119.33292   0.00000 29.23955  75.77567  0.79181  1.22679
  445.8 10.97941 30.35562  55.00760 48.47218 28.75016 28.45580  93.78708 119.33615   0.00000 29.24034  63.09542  0.95094  2.23438
  446.0 10.77742 30.11197  54.90668 48.54507 28.74853 28.45267  94.00727 119.30445   0.00000 29.23257  69.80234  0.85957  2.47802
  446.2 10.57961 29.64795  54.93080 48.62860 28.75214 28.44903  94.27321 119.27483   0.00000 29.22532  59.33533  1.01120  2.94205
  446.4 10.37762 29.32669  54.91865 48.49131 28.75020 28.44993  94.28773 119.29123   0.00000 29.22933  41.67675  1.43965  3.26331
  446.6 10.17984 29.78844  54.85181 48.38039 28.74819 28.46233  94.29800 119.23769   0.00000 29.21622  43.44664  1.38100  2.80156
  446.8  9.97785 30.23971  54.90952 48.37362 28.74681 28.47738  94.29665 119.22553   0.00000 29.21324  59.59068  1.00687  2.35029
  447.0  9.78008 30.16352  54.88911 48.33463 28.74295 28.47697  94.24796 119.18520   0.00000 29.20336  50.13832  1.19669  2.42649
  447.2  9.58227 29.88098  54.89209 48.36674 28.74398 28.47863  94.26225 119.19696   0.00000 29.20624  60.84209  0.98616  2.70902
  447.4  9.38027 29.81793  54.95532 48.38924 28.74321 28.48369  94.26885 119.27692   0.00000 29.22583  53.46163  1.12230  2.77207
  447.6  9.17828 29.80551  55.27553 48.36572 28.73998 28.48449  94.26910 119.95891   0.00000 29.39293  60.59875  0.99012  2.78449
  447.8  8.97629 30.12482  55.57416 48.29678 28.74147 28.48548  94.27570 120.46805   0.00000 29.51768  67.16976  0.89326  2.46518
  448.0  8.77852 29.75286  55.74051 48.36576 28.74046 28.48763  94.30270 120.46667   0.00000 29.51735  69.93509  0.85794  2.83714
  448.2  8.57652 29.67218  55.69140 48.28138 28.73708 28.49587  94.25829 120.38898   0.00000 29.49831  61.32432  0.97840  2.91782
  448.4  8.37871 29.87708  55.69167 48.33122 28.73974 28.50093  94.26664 120.24107   0.00000 29.46207  67.21011  0.89272  2.71292
  448.6  8.18094 30.13424  55.49323 48.11740 28.73790 28.50177  94.26241 120.09052   0.00000 29.42518  62.67756  0.95728  2.45575
  448.8  7.98316 29.90076  55.41468 48.05965 28.73487 28.50582  94.28141 119.91716   0.00000 29.38270  71.21338  0.84254  2.68924
  449.0  7.78117 30.39082  55.41215 48.14402 28.73732 28.50838  94.30379 119.78054   0.00000 29.34923  72.71851  0.82510  2.19918
  449.2  7.58336 30.57364  55.33820 48.16048 28.73690 28.51306  94.28960 119.63329   0.00000 29.31315  91.25933  0.65747  2.01636
  449.4  7.38180 30.23177  55.23499 48.30813 28.73629 28.50920  94.26721 119.51414   0.00000 29.28395  92.76405  0.64680  2.35823
  449.6  7.18270 30.35942  55.27631 48.24332 28.73467 28.50888  94.24822 119.51456   0.00000 29.28406 108.40367  0.55349  2.23058
  449.8  6.97973 30.34960  55.11998 48.19989 28.73301 28.50778  94.25230 119.37782   0.00000 29.25055  77.88200  0.77040  2.24040
  450.0  6.77672 29.55955  55.03978 48.13278 28.73357 28.50952  94.26231 119.20660   0.00000 29.20860  34.80050  1.72411  3.03045
  450.2  6.57766 30.39820  54.99571 48.13248 28.73264 28.51131  94.26785 119.09937   0.00000 29.18232  63.11018  0.95072  2.19181
  450.4  6.37855 30.69310  54.97468 48.05371 28.73131 28.51144  94.24184 119.08804   0.00000 29.17955  68.87048  0.87120  1.89690
  450.6  6.17945 30.72967  55.03776 48.11716 28.73442 28.51158  94.27211 119.06983   0.00000 29.17509  60.72690  0.98803  1.86033
  450.8  5.97648 30.41148  54.82932 48.05212 28.72936 28.51409  94.25604 119.09381   0.00000 29.18096  60.07525  0.99875  2.17852
  451.0  5.78129 29.95043  54.97262 48.10588 28.73368 28.51537  94.28291 119.02931   0.00000 29.16516  71.67335  0.83713  2.63957
  451.2  5.57832 30.32304  55.10074 48.07169 28.72791 28.51432  94.24829 119.00230   0.00000 29.15854  76.13052  0.78812  2.26696
  451.4  5.38312 30.43155  55.10362 48.05226 28.73374 28.51408  94.25439 119.06800   0.00000 29.17464  81.48352  0.73635  2.15846
  451.6  5.17621 30.35317  55.01772 48.00309 28.72993 28.51426  94.27649 119.05927   0.00000 29.17250  73.23485  0.81928  2.23683
  451.8  4.98105 30.57617  55.03773 47.90643 28.73078 28.51420  94.27311 119.08424   0.00000 29.17862  70.25264  0.85406  2.01383
  452.0  4.77805 30.79903  55.34549 48.03321 28.72772 28.51439  94.25849 119.48299   0.00000 29.27632  70.27631  0.85377  1.79097
  452.2  4.57898 30.98647  55.99441 47.94409 28.73169 28.51326  94.25137 120.20867   0.00000 29.45413  84.95532  0.70625  1.60352
  452.4  4.37988 30.54946  56.08810 48.01746 28.72843 28.51458  94.25434 120.39627   0.00000 29.50010  70.26855  0.85387  2.04054
  452.6  4.17688 29.78524  56.08966 47.92654 28.72755 28.51395  94.26618 120.32279   0.00000 29.48209  38.05733  1.57657  2.80476
  452.8  3.97781 28.84713  55.63253 47.88018 28.72342 28.51963  94.25497 119.73906   0.00000 29.33906   9.09486  6.59713  3.74287
  453.0  3.77871 28.71326  55.12715 47.82171 28.72282 28.52541  94.25198 118.98152   0.00000 29.15345  10.09391  5.94418  3.87673
  453.2  3.57965 28.70148  55.52108 47.75003 28.72523 28.53280  94.26990 119.59434   0.00000 29.30360   8.35194  7.18396  3.88852
  453.4  3.37664 28.68855  55.64294 47.59700 28.72704 28.54094  94.24977 119.68084   0.00000 29.32480   7.90835  7.58692  3.90145
  453.6  3.17754 28.76460  55.03667 47.55331 28.73245 28.51832  94.25327 118.86304   0.00000 29.12442   7.51146  7.98780  3.82540
  453.8  2.97848 31.08966  55.94304 47.50796 28.73939 28.51453  94.25719 120.03119   0.00000 29.41064   7.52800  7.97025  1.50034
  454.0  2.77937 30.53231  55.39389 47.31089 28.74536 28.52303  94.25831 119.36433   0.00000 29.24724  16.14225  3.71695  2.05769
  454.2  2.57641 28.95743  54.88926 47.30264 28.75175 28.51862  94.25568 118.82858   0.00000 29.11597  11.14832  5.38198  3.63257
  454.4  2.37730 28.62207  55.26746 47.31316 28.75997 28.53569  94.25396 119.62187   0.00000 29.31035   8.75920  6.84994  3.96793
  454.6  2.17820 29.02690  55.17191 47.25324 28.77079 28.53868  93.64729 119.65841   0.00000 29.31930   7.65754  7.83542  3.56310
  454.8 11.60000 29.38409  54.51833 46.90857 28.80973 28.51934  93.04061 118.81390   0.00000 29.11238   4.95625 12.10593  3.29331
  455.0 11.40000 29.26948  54.68354 46.37601 28.83083 28.49627  92.43394 118.54119   0.00000 29.04556   5.85498 10.24769  3.52052
  455.2 11.20000 28.75149  54.88581 46.07592 28.81544 28.50789  91.82726 118.38410   0.00000 29.00706   9.31918  6.43833  4.03851
  455.4 11.00000 28.78940  54.95644 46.04731 28.80654 28.51704  91.22058 118.61649   0.00000 29.06400  10.15724  5.90712  4.00060
  455.6 10.80000 30.31059  55.54053 45.84102 28.79053 28.52509  90.61391 119.48091   0.00000 29.27581   4.51252 13.29635  2.47941
  455.8 10.60000 28.63327  57.43452 45.88139 28.77625 28.53310  89.99838 121.80821   0.00000 29.84606   9.29821  6.45286  4.15673
  456.0 10.40000 28.68686  57.54557 46.01820 28.77077 28.54048  89.90476 122.02165   0.00000 29.89836  10.14178  5.91612  4.10314
  456.2 10.20000 28.37336  57.37359 46.04817 28.78141 28.54497  90.13198 122.05530   0.00000 29.90680   8.32161  7.21014  4.41664
