~Version information
# This file generated by the LAST component (v1.3.0). Tver. R.E.A. 1999-2008
  VERS.                                             2.0 : CWLS LAS Version
  WRAP.                                              NO : Wrap mode
~Well information
  STRT.M                                             47 : Started at
  STOP.M                                         2016.4 : Stopped at
  STEP.M                                            0.2 : Step
  NULL.                                          -32768 : Null value
  COMP.                          ООО "Газпромгеоресурс" : Company
  WELL.                        Мест. Акшабулак Скв. 494 : Well
  FLD .                                       Акшабулак : Field
  CTRY.                                          Россия : Country
  SRVC.                                            ГЕРС : Service company
  DATE.                                      24.04.2024 : Date
~Curve information
  DEPTH.                                                : 
  S123456.м.                                            : Тальблок
  S200.т.                                               : Вес на крюке
  S300.атм.                                             : Давление нагн.
  S720.м3                                               : Сум.объем в емк
  S800.°С                                               : Темпер. на вх.
  S900.°С                                               : Темпер. на вых.
  S1200.мин-1                                           : Обороты рот.
  S50 .мин-1                                            : Ходы 1 нас.
  S51 .мин-1                                            : Ходы 2 нас.
  S1001.л/c                                             : Расх на вх.
  S106.м/ч                                              : Скорость бур.
  S107.мин/м                                            : ДМК
  S202.т.                                               : Нагрузка на дол
~Other information
~ASCII Log data
# ...
 2006.4 10.35262 55.25011 114.39253 41.63940 47.46183 49.58909  37.87802  97.91264   0.00000 24.17439  14.90328  4.02596  5.74989
 2006.6 10.15063 55.09343 113.19481 41.68248 47.46316 49.60704  38.02252  97.98318   0.00000 24.19181  15.13905  3.96326  5.90658
 2006.8  9.94863 54.61602 113.89582 41.68827 47.46926 49.60912  38.05949  97.90634   0.00000 24.17284  12.00216  4.99910  6.38398
 2007.0  9.75082 54.76996 114.00056 41.76453 47.47441 49.54415  38.03882  97.81020   0.00000 24.14910  12.02253  4.99063  6.23004
 2007.2  9.54883 54.86483 111.26775 41.77618 47.48293 49.56365  38.14355  98.01113   0.00000 24.19871   9.80446  6.11966  6.13517
 2007.4  9.35105 54.49613 112.39399 41.83649 47.49338 49.57473  38.15449  97.99275   0.00000 24.19417  10.50715  5.71039  6.50387
 2007.6  9.14906 54.47829 114.60040 41.88766 47.49972 49.52677  38.17147  98.21053   0.00000 24.24794  10.38365  5.77832  6.52170
 2007.8  8.95129 55.93569 113.00570 41.92537 47.51381 49.50504  38.80671  99.00571   0.00000 24.44427   7.44703  8.05690  5.06431
 2008.0  8.74930 56.04800 113.56347 41.93303 47.52451 49.61373  40.67834 101.02718   0.00000 24.94337  13.22427  4.53711  4.95200
 2008.2  8.55148 55.43068 115.14523 41.91831 47.53251 49.56210  40.60701 100.55153   0.00000 24.82593   8.81669  6.80527  5.56932
 2008.4  8.34949 56.17166 116.59729 41.90777 47.55405 49.43962  40.62411 100.60092   0.00000 24.83813  11.92287  5.03235  4.82834
 2008.6  8.15172 55.81755 113.97829 41.90960 47.58695 49.48985  40.58874  97.70177   0.00000 24.12233  11.50937  5.21314  5.18245
 2008.8  7.95395 56.12388 104.30654 41.99087 47.61798 49.45095  40.59819  93.74359   0.00000 23.14507  12.08533  4.96470  4.87612
 2009.0  7.75191 55.79061 113.95960 42.04065 47.64568 49.41307  40.57925  98.58642   0.00000 24.34075  11.94627  5.02249  5.20939
 2009.2  7.54992 56.00035 118.64413 41.98052 47.67357 49.36733  40.45389 100.23171   0.00000 24.74697  12.33448  4.86441  4.99965
 2009.4  7.35078 56.88366 117.47961 41.97104 47.69689 49.40828  40.57290 100.50072   0.00000 24.81339  12.50839  4.79678  4.11634
 2009.6  7.15172 57.27636 116.49178 41.92053 47.71909 49.42078  40.74611 100.87273   0.00000 24.90523  13.41452  4.47276  3.72365
 2009.8  6.94871 57.15630 115.06870 41.93507 47.74590 49.48032  40.71624 100.85275   0.00000 24.90030  10.01712  5.98974  3.84370
 2010.0  6.74965 56.24974 118.03948 41.90521 47.77457 49.46975  40.62786 100.76074   0.00000 24.87758  10.89332  5.50796  4.75026
 2010.2  6.55055 56.48014 115.78970 41.89564 47.80200 49.51414  40.69713 101.05612   0.00000 24.95051   7.80797  7.68446  4.51986
 2010.4  6.35145 55.88428 114.47343 41.86756 47.83082 49.56064  40.65823 100.81310   0.00000 24.89051   7.77426  7.71777  5.11572
 2010.6  6.14848 55.81432 114.62975 41.87949 47.86092 49.54409  40.63172 100.50278   0.00000 24.81389   7.59261  7.90242  5.18568
 2010.8  5.94937 55.69163 116.13624 41.84328 47.89102 49.58762  40.60752 100.34309   0.00000 24.77447   8.23773  7.28356  5.30837
 2011.0  5.75031 55.83352 114.68281 41.84379 47.91790 49.61391  40.55094 100.49581   0.00000 24.81217   7.42083  8.08535  5.16648
 2011.2  5.55121 55.65034 115.35544 41.81540 47.94311 49.62125  40.69220 101.02016   0.00000 24.94163   6.77890  8.85099  5.34966
 2011.4  5.34820 55.19483 116.45846 41.75163 47.96944 49.61006  40.60836 100.54945   0.00000 24.82542   8.04294  7.45996  5.80517
 2011.6  5.14914 55.56172 113.85322 41.79049 47.99286 49.59304  40.61968 100.48815   0.00000 24.81028   5.56546 10.78078  5.43828
 2011.8  4.95004 55.11063 114.57635 41.76946 48.01732 49.60638  40.59809 100.36937   0.00000 24.78095   6.07414  9.87795  5.88937
 2012.0  4.75098 55.34410 115.63554 41.73165 48.04086 49.67944  40.60613 100.89437   0.00000 24.91058   6.25489  9.59249  5.65590
 2012.2  4.55188 55.42298 116.05080 41.69512 48.06220 49.72453  40.52661 100.50661   0.00000 24.81484   7.23544  8.29252  5.57702
 2012.4  4.34887 55.39562 116.17149 41.73735 48.08035 49.75626  40.52023 100.10872   0.00000 24.71660   7.69802  7.79422  5.60438
 2012.6  4.14980 55.07001 116.29474 41.78749 48.09674 49.74777  40.51833 100.09872   0.00000 24.71413   8.37352  7.16545  5.92998
 2012.8  3.95070 55.00328 117.17518 41.78816 48.11425 49.71627  40.49412  99.99338   0.00000 24.68812   8.87097  6.76363  5.99672
 2013.0  3.75164 55.50529 116.69406 41.77445 48.13018 49.65569  34.94704 100.83810   0.00000 24.89668   8.29070  7.23702  5.49471
 2013.2  3.54863 55.47854 114.40046 41.73241 48.15063 49.67548  34.44876 100.68190   0.00000 24.85812   6.10041  9.83541  5.52146
 2013.4  3.34953 55.42974 113.71382 41.71803 48.17322 49.65294  34.45086 100.48590   0.00000 24.80972   6.42265  9.34194  5.57026
 2013.6  3.15047 55.68079 113.53726 41.64030 48.19750 49.81699  34.51897 100.38381   0.00000 24.78452   5.78060 10.37955  5.31921
 2013.8  2.95137 55.83236 117.12067 41.62023 48.21573 49.86346  34.50406 100.72395   0.00000 24.86850   8.53825  7.02720  5.16764
 2014.0  2.74840 55.48106 115.78974 41.59225 48.23399 49.87530  40.02946 100.80550   0.00000 24.88864   8.61327  6.96599  5.51894
 2014.2 11.59801 58.65563 109.08431 41.55637 48.26194 49.74866  38.05151 100.53604   0.00000 24.82211   3.53742 16.96150  2.49154
 2014.4 11.40023 56.46630 111.45871 41.25003 48.21471 48.36971  39.80571  95.16858   0.00000 23.49689  20.14488  2.97842  4.53370
 2014.6 11.20242 56.26448 108.36415 41.08648 48.19475 48.53982  39.86686  95.01193   0.00000 23.45822  13.36988  4.48770  4.73552
 2014.8 11.00043 55.60980 113.62594 41.03017 48.17715 48.88306  40.83177  96.33582   0.00000 23.78508  15.47436  3.87738  5.39020
 2015.0 10.79844 55.62836 113.54848 40.99613 48.16233 48.75933  40.72722  96.24105   0.00000 23.76168  11.36577  5.27901  5.37164
 2015.2 10.59645 55.81461 111.39464 40.93023 48.15014 48.73940  40.69571  96.26642   0.00000 23.76794  14.66380  4.09171  5.18540
 2015.4 10.39867 55.35834 112.03808 40.97857 48.14308 48.86900  40.64692  96.24342   0.00000 23.76227  11.75559  5.10395  5.64166
 2015.6 10.19668 55.36588 110.46011 40.91748 48.13204 48.97664  40.66178  96.55066   0.00000 23.83812  10.79089  5.56025  5.63412
 2015.8  9.99887 55.23565 110.47853 40.94582 48.12338 48.97617  40.61826  96.76225   0.00000 23.89037   8.43480  7.11339  5.76435
 2016.0  9.79688 56.30433 111.77677 40.90006 48.12135 49.08463  40.59007  96.89384   0.00000 23.92286  13.69642  4.38071  4.69568
 2016.2  9.59910 55.75772 110.63013 40.93817 48.11749 49.15181  40.75532  97.06059   0.00000 23.96402   8.56253  7.00728  5.24228
