~Version information
# This file generated by the LAST component (v1.3.0). Tver. R.E.A. 1999-2008
  VERS.                                             2.0 : CWLS LAS Version
  WRAP.                                              NO : Wrap mode
~Well information
  STRT.M                                             47 : Started at
  STOP.M                                         2016.4 : Stopped at
  STEP.M                                            0.2 : Step
  NULL.                                          -32768 : Null value
  COMP.                          ООО "Газпромгеоресурс" : Company
  WELL.                        Мест. Акшабулак Скв. 494 : Well
  FLD .                                       Акшабулак : Field
  CTRY.                                          Россия : Country
  SRVC.                                            ГЕРС : Service company
  DATE.                                      24.04.2024 : Date
~Curve information
  DEPTH.                                                : 
  S123456.м.                                            : Тальблок
  S200.т.                                               : Вес на крюке
  S300.атм.                                             : Давление нагн.
  S720.м3                                               : Сум.объем в емк
  S800.°С                                               : Темпер. на вх.
  S900.°С                                               : Темпер. на вых.
  S1200.мин-1                                           : Обороты рот.
  S50 .мин-1                                            : Ходы 1 нас.
  S51 .мин-1                                            : Ходы 2 нас.
  S1001.л/c                                             : Расх на вх.
  S106.м/ч                                              : Скорость бур.
  S107.мин/м                                            : ДМК
  S202.т.                                               : Нагрузка на дол
~Other information
~ASCII Log data
# ...
  183.6  5.29723 26.35536  45.53401 56.85488 29.00274 28.49773  83.27477 113.11453   0.00000 27.71589  11.71133  5.12324  3.12464
  183.8  5.09816 26.26591  45.45428 56.87067 29.01257 28.49913  83.26694 113.08824   0.00000 27.70945  12.14476  4.94040  3.21409
  184.0  4.89906 25.88238  46.15295 56.89938 29.01948 28.50533  83.24950 114.08178   0.00000 27.95289  15.64781  3.83440  3.59762
  184.2  4.70000 25.77473  46.26726 56.81776 29.02689 28.50290  83.18049 113.90736   0.00000 27.91015  13.27315  4.52041  3.70527
  184.4  4.49699 25.79278  45.95582 56.76536 29.03835 28.50558  83.25652 113.64637   0.00000 27.84620  13.33298  4.50012  3.68722
  184.6  4.29789 25.50261  45.81652 56.77509 29.04629 28.51621  83.14546 113.45225   0.00000 27.79864  15.71747  3.81741  3.97739
  184.8  4.09883 25.60872  45.97284 56.72322 29.05738 28.51530  83.11951 113.30113   0.00000 27.76161  13.62300  4.40431  3.87128
  185.0  3.89973 25.72205  45.92501 56.73307 29.06716 28.51832  83.15157 113.18279   0.00000 27.73261  12.88976  4.65486  3.75795
  185.2  3.70066 26.03213  46.23675 56.74955 29.07855 28.52311  83.13737 113.44265   0.00000 27.79629  12.39941  4.83894  3.44787
  185.4  3.49766 25.86981  46.73000 56.68910 29.09027 28.52236  83.14987 114.03976   0.00000 27.94259  12.05677  4.97646  3.61019
  185.6  3.29855 26.05109  46.53503 56.66605 29.10425 28.52702  83.18041 113.55997   0.00000 27.82503  10.50842  5.70970  3.42891
  185.8  3.09949 25.84418  46.40720 56.63995 29.11707 28.52430  83.08318 113.25548   0.00000 27.75042  11.78584  5.09085  3.63581
  186.0  2.90039 26.12525  46.12905 56.63848 29.12887 28.53668  83.19138 113.09537   0.00000 27.71119   9.65929  6.21164  3.35475
  186.2  2.69742 27.18217  46.32375 56.57185 29.14381 28.53504  83.29958 113.44907   0.00000 27.79786   6.15006  9.75601  2.29783
  186.4  2.49832 27.08877  46.39038 56.54268 29.16138 28.54991  83.40779 113.46006   0.00000 27.80055   7.54408  7.95326  2.39123
  186.6  2.29922 27.24514  45.97193 56.47150 29.17726 28.55916  83.51599 113.15247   0.00000 27.72518   7.13897  8.40457  2.23486
  186.8  2.10016 27.06509  45.93142 56.43717 29.19491 28.56890  83.62420 112.94927   0.00000 27.67540   7.16416  8.37502  2.41491
  187.0 11.44230 25.86137  46.86214 56.27644 29.19566 28.55256  83.73241 114.03687   0.00000 27.94188   4.67775 12.82668  1.70992
  187.2 11.24031 23.14626  46.88122 55.92437 29.18468 28.50578  83.84061 113.98178   0.00000 27.92839   9.06567  6.61838  2.23374
  187.4 11.03832 23.13641  46.47821 55.88093 29.19629 28.51848  83.94881 113.94256   0.00000 27.91878   8.28154  7.24503  2.24359
  187.6 10.84055 23.43892  46.25326 55.83172 29.20552 28.53179  84.05701 114.15889   0.00000 27.97178  10.07126  5.95755  1.94107
  187.8 10.64273 22.67511  46.57216 55.77440 29.21048 28.55207  84.16522 114.46099   0.00000 28.04580  16.47809  3.64120  2.70489
  188.0 10.44074 22.44287  46.17474 55.83204 29.21141 28.55919  84.27343 114.12182   0.00000 27.96270  18.25984  3.28590  2.93713
  188.2 10.23875 22.87481  45.81532 55.78595 29.21478 28.56394  84.38163 113.87862   0.00000 27.90311  13.61617  4.40653  2.50519
  188.4 10.04098 22.33801  45.62735 55.77623 29.21346 28.56732  84.48984 113.71239   0.00000 27.86238  16.59331  3.61592  3.04199
  188.6  9.83898 22.53102  45.54350 55.77501 29.22013 28.56714  84.59804 113.64925   0.00000 27.84691  17.23841  3.48060  2.84897
  188.8  9.64121 22.01190  45.53112 55.80368 29.22221 28.56816  84.53831 113.66350   0.00000 27.85040  20.82323  2.88140  3.36810
  189.0  9.43918 22.00980  45.61786 55.79477 29.22424 28.56818  84.59987 113.71954   0.00000 27.86413  17.90740  3.35057  3.37020
  189.2  9.24141 22.23486  45.64153 55.73336 29.22982 28.57644  84.56673 113.70775   0.00000 27.86124  17.31228  3.46575  3.14514
  189.4  9.03941 22.12016  45.73797 55.71745 29.23500 28.58243  84.57736 113.73775   0.00000 27.86859  16.83055  3.56495  3.25984
  189.6  8.84164 22.18498  46.20133 55.67212 29.24374 28.58067  84.60790 114.40948   0.00000 28.03318  15.54468  3.85984  3.19502
  189.8  8.63965 22.41818  46.33869 55.70475 29.25052 28.58247  84.51590 114.35928   0.00000 28.02088  14.20093  4.22508  2.96182
  190.0  8.44184 21.98917  46.36221 55.62583 29.25536 28.58091  84.47522 114.00182   0.00000 27.93329  16.87401  3.55576  3.39083
  190.2  8.23984 21.75544  46.12412 55.59133 29.26344 28.58451  84.38293 113.83189   0.00000 27.89166  18.54922  3.23464  3.62456
  190.4  8.04207 21.72889  46.04576 55.67269 29.26777 28.58544  84.35279 113.78600   0.00000 27.88041  18.62867  3.22084  3.65111
  190.6  7.84008 22.10925  45.92482 55.66153 29.27533 28.59179  84.42014 113.76907   0.00000 27.87627  16.75889  3.58019  3.27075
  190.8  7.64230 22.42062  45.92258 55.65223 29.28362 28.59609  84.47485 113.69609   0.00000 27.85839  14.41508  4.16231  2.95938
  191.0  7.44035 22.41309  45.99810 55.65928 29.29172 28.59370  84.45886 113.65953   0.00000 27.84943  15.05626  3.98505  2.96691
  191.2  7.24125 22.00591  46.01918 55.58224 29.30165 28.59451  84.36745 113.68387   0.00000 27.85539  15.24866  3.93477  3.37409
  191.4  7.03828 22.62727  46.25516 55.56593 29.31303 28.59439  84.53486 114.24040   0.00000 27.99175  12.26161  4.89332  2.75273
  191.6  6.83918 22.81049  46.31627 55.55086 29.32001 28.60303  84.50340 114.30367   0.00000 28.00726  12.10394  4.95706  2.56951
  191.8  6.64012 22.69380  46.12952 55.62463 29.32864 28.60627  84.40270 113.92886   0.00000 27.91542  12.57364  4.77189  2.68620
  192.0  6.44102 22.60148  46.07077 55.48942 29.33696 28.60533  84.33727 113.69150   0.00000 27.85726  12.79620  4.68889  2.77852
  192.2  6.24191 22.61017  45.92543 55.52111 29.34237 28.61138  84.39783 113.58417   0.00000 27.83096  11.86551  5.05667  2.76983
  192.4  6.03895 22.60620  45.77002 55.42225 29.34738 28.60772  84.29697 113.52130   0.00000 27.81556  13.84006  4.33524  2.77379
  192.6  5.83984 22.31253  45.77389 55.43763 29.35337 28.61561  84.28666 113.58174   0.00000 27.83037  15.44379  3.88506  3.06747
  192.8  5.64078 22.11335  45.88521 55.44498 29.35941 28.61648  84.26346 113.61200   0.00000 27.83778  16.38405  3.66210  3.26665
  193.0  5.44168 22.63058  46.58123 55.37328 29.36847 28.61710  84.49325 114.44395   0.00000 28.04163  12.10476  4.95673  2.74942
  193.2  5.23867 22.80106  46.37244 55.40863 29.38021 28.62579  84.45322 114.26975   0.00000 27.99895  11.86265  5.05789  2.57894
  193.4  5.03961 22.83590  46.18701 55.37986 29.38964 28.62201  84.45532 114.12074   0.00000 27.96244  12.93728  4.63776  2.54410
  193.6  4.84051 22.91537  45.97206 55.27459 29.40303 28.62399  84.48201 113.92732   0.00000 27.91504  11.40965  5.25871  2.46463
  193.8  4.64145 22.44940  46.16276 55.31079 29.41235 28.62370  84.35175 113.67287   0.00000 27.85270  12.52999  4.78851  2.93060
  194.0  4.43844 22.26585  45.95762 55.42897 29.41978 28.63062  84.34958 113.60946   0.00000 27.83716  14.85073  4.04020  3.11415
  194.2  4.23934 22.24939  46.14474 55.28477 29.43013 28.63618  84.25648 113.58567   0.00000 27.83133  14.99316  4.00182  3.13061
  194.4  4.04027 22.42259  46.43851 55.27187 29.43767 28.64127  84.33032 113.91966   0.00000 27.91317  13.67788  4.38665  2.95741
  194.6  3.84117 22.11875  46.90669 55.31353 29.44533 28.64789  84.39442 114.48737   0.00000 28.05227  15.44279  3.88531  3.26125
  194.8  3.64211 22.44711  46.82850 55.27321 29.45497 28.64582  84.45814 114.07514   0.00000 27.95126  11.30464  5.30756  2.93289
  195.0  3.43910 22.56831  46.89845 55.20981 29.46622 28.65523  84.45619 113.95856   0.00000 27.92270  10.61941  5.65003  2.81169
  195.2  3.24000 22.09405  47.03585 55.10254 29.47766 28.65323  84.44254 113.62696   0.00000 27.84145  10.12284  5.92719  3.28595
  195.4  3.04484 22.31092  46.70527 55.16682 29.48944 28.65805  84.42900 113.52782   0.00000 27.81715  10.09468  5.94373  3.06908
  195.6  2.84184 22.61167  45.80133 55.12912 29.50073 28.66311  84.30665 113.56473   0.00000 27.82620  13.83365  4.33725  2.76833
  195.8  2.63887 22.28572  45.92598 55.13748 29.50613 28.66517  84.21949 113.82715   0.00000 27.89050  15.94766  3.76231  3.09428
