~Version information
# This file generated by the LAST component (v1.3.0). Tver. R.E.A. 1999-2008
  VERS.                                             2.0 : CWLS LAS Version
  WRAP.                                              NO : Wrap mode
~Well information
  STRT.M                                             47 : Started at
  STOP.M                                         2016.4 : Stopped at
  STEP.M                                            0.2 : Step
  NULL.                                          -32768 : Null value
  COMP.                          ООО "Газпромгеоресурс" : Company
  WELL.                        Мест. Акшабулак Скв. 494 : Well
  FLD .                                       Акшабулак : Field
  CTRY.                                          Россия : Country
  SRVC.                                            ГЕРС : Service company
  DATE.                                      24.04.2024 : Date
~Curve information
  DEPTH.                                                : 
  S123456.м.                                            : Тальблок
  S200.т.                                               : Вес на крюке
  S300.атм.                                             : Давление нагн.
  S720.м3                                               : Сум.объем в емк
  S800.°С                                               : Темпер. на вх.
  S900.°С                                               : Темпер. на вых.
  S1200.мин-1                                           : Обороты рот.
  S50 .мин-1                                            : Ходы 1 нас.
  S51 .мин-1                                            : Ходы 2 нас.
  S1001.л/c                                             : Расх на вх.
  S106.м/ч                                              : Скорость бур.
  S107.мин/м                                            : ДМК
  S202.т.                                               : Нагрузка на дол
~Other information
~ASCII Log data
# ...
 1225.2  7.93293 44.72493  98.37197 62.59277 40.39427 41.21298   0.00000 109.75104   0.00000 27.09727  25.60988  2.34285  2.97507
 1225.4  7.73516 44.45694  98.06184 62.61686 40.39783 41.21307   0.00000 109.76176   0.00000 27.09991  28.63591  2.09527  3.24306
 1225.6  7.53316 44.26983  97.73867 62.22796 40.39835 41.20723   0.00000 109.82602   0.00000 27.11578  20.57674  2.91591  3.43017
 1225.8  7.33523 44.48471  96.57182 61.87893 40.40002 41.22380   0.00000 110.89559   0.00000 27.37985  13.57828  4.41882  3.21529
 1226.0  7.13617 44.21967  96.34590 60.98943 40.40182 41.23680   0.00000 110.16016   0.00000 27.19827  12.14889  4.93872  3.48033
 1226.2  6.93316 44.34489  95.53036 60.01230 40.40094 41.26360   0.00000 109.87678   0.00000 27.12831  11.07289  5.41864  3.35511
 1226.4  6.73406 45.13136  96.88603 59.14610 40.39484 41.27027   0.00000 109.84735   0.00000 27.12104  14.22176  4.21889  2.56864
 1226.6  6.53891 45.07919 100.46972 58.55989 40.38940 41.28808   0.00000 110.63765   0.00000 27.31617  18.18134  3.30009  2.62081
 1226.8  6.33590 45.14479  99.46481 58.32207 40.38817 41.28416   0.00000 110.42844   0.00000 27.26452  14.78824  4.05728  2.55521
 1227.0  6.13293 44.78906 101.36916 58.07790 40.38605 41.29198   0.00000 109.65568   0.00000 27.07372  20.02401  2.99640  2.91094
 1227.2  5.93773 44.83438  98.91451 57.99839 40.38864 41.29156   0.00000 109.68056   0.00000 27.07986  13.93732  4.30499  2.86562
 1227.4  5.73473 45.00274  96.99421 57.80812 40.38729 41.29960   0.00000 109.79774   0.00000 27.10880  19.07363  3.14570  2.69726
 1227.6  5.53566 44.88514  97.09476 57.71368 40.39093 41.29632   0.00000 110.54746   0.00000 27.29390  13.21725  4.53952  2.81486
 1227.8  5.33656 45.40004  94.88538 57.63608 40.39820 41.30098   0.00000 110.48978   0.00000 27.27966   8.33457  7.19893  2.29996
 1228.0  5.13359 45.20784  95.94146 57.55239 40.40448 41.31712   0.00000 109.87357   0.00000 27.12752  12.51431  4.79451  2.49216
 1228.2  4.93449 44.98528  96.11550 57.53587 40.41339 41.29646   0.00000 109.88191   0.00000 27.12958  15.44782  3.88404  2.71472
 1228.4  4.73539 45.45695  94.71135 57.46699 40.42565 41.29752   0.00000 110.70277   0.00000 27.33224   8.59420  6.98145  2.24305
 1228.6  4.53633 45.15477  95.29156 57.62268 40.43944 41.29929   0.00000 109.87321   0.00000 27.12743  13.57555  4.41971  2.54523
 1228.8  4.33332 44.93665  95.61658 57.49877 40.45506 41.30262   0.00000 109.83764   0.00000 27.11865  11.67485  5.13925  2.76335
 1229.0  4.13426 45.35519  94.68504 57.44136 40.47345 41.30615   0.00000 110.45576   0.00000 27.27126   9.53122  6.29510  2.34481
 1229.2  3.93516 45.31238  95.59354 57.90607 40.49088 41.31182   0.00000 110.59770   0.00000 27.30630  13.52639  4.43577  2.38762
 1229.4  3.73605 46.13399  91.55325 57.84972 40.50580 41.32028   3.90155 110.10940   0.00000 27.18574   5.48689 10.93515  1.56601
 1229.6  3.53309 44.87677 107.79219 57.72875 40.46236 41.31264  38.57042 109.10410   0.00000 26.93754  34.46456  1.74092  2.82324
 1229.8  3.33398 45.30925 104.57720 57.73318 40.46012 41.30189  38.63459 109.26015   0.00000 26.97607  27.69271  2.16664  2.39075
 1230.0  3.13492 45.67459 103.34196 57.77592 40.46074 41.29871  38.73798 110.08370   0.00000 27.17940  26.10184  2.29869  2.02541
 1230.2  2.93582 45.67572 103.46696 57.90072 40.45819 41.30629  38.73077 110.64725   0.00000 27.31854  21.44765  2.79751  2.02428
 1230.4  2.73672 46.27700  98.65773 57.79055 40.45586 41.31042  22.47628 110.24717   0.00000 27.21976  12.47245  4.81060  1.42300
 1230.6  2.53375 45.69466  99.04987 57.70095 40.45870 41.32642  31.76008 109.72738   0.00000 27.09142  26.10038  2.29882  2.00534
 1230.8  2.33465 46.17778  98.45327 58.07233 40.45870 41.33089  33.21643 109.63377   0.00000 27.06831  36.51696  1.64307  1.52222
 1231.0  2.13949 45.18724 101.61222 57.72166 40.45974 41.31093  33.12442 109.49429   0.00000 27.03387  20.83631  2.87959  2.51276
 1231.2 11.47207 46.68795  95.35533 57.28583 40.22013 41.20853  34.54459 110.69707   0.00000 27.33084   4.88859 12.27347  1.01205
 1231.4 11.27008 46.70413  96.58450 56.11274 39.63288 40.94011  38.30025 110.54274   0.00000 27.29273  15.47241  3.87787  0.99587
 1231.6 11.07227 46.42939  97.14999 56.02749 39.67883 40.95208  38.23678 110.18402   0.00000 27.20417  11.94527  5.02291  1.27060
 1231.8 10.87027 47.12413  93.99500 55.92216 39.73561 40.95339  38.39394 110.56983   0.00000 27.29943  11.69378  5.13093  0.57587
 1232.0 10.67250 46.89955  94.27311 55.67476 39.77698 40.95562  38.38881 110.76447   0.00000 27.34748  16.78963  3.57363  0.80045
 1232.2 10.47051 47.21516  93.43450 55.65641 39.81061 40.96254  38.43323 111.13846   0.00000 27.43982  14.49794  4.13852  0.48829
 1232.4 10.27691 47.21453  92.93771 55.63953 39.84502 40.94643  38.37920 110.67129   0.00000 27.32447  14.76668  4.06320  0.48547
 1232.6 10.07070 47.40078  92.66676 55.69221 39.87104 40.96729  38.34317 110.53245   0.00000 27.29020  21.69584  2.76551  0.29922
 1232.8  9.87293 47.35774  91.28996 55.60839 39.89066 40.98435  38.38368 110.44581   0.00000 27.26880  18.54341  3.23565  0.34226
 1233.0  9.67094 47.27618  92.18203 55.59869 39.90649 40.97537  38.36794 110.37856   0.00000 27.25220  27.45288  2.18556  0.42382
 1233.2  9.47316 47.34013  90.92056 55.60492 39.95203 41.01236  23.61746 110.67027   0.00000 27.32422  17.97808  3.33740  0.38748
 1233.4  9.27117 46.17155  93.21906 55.60212 40.05108 41.07155   0.00000 110.88187   0.00000 27.37646  25.06876  2.39342  1.52845
 1233.6  9.07336 46.71160  90.19604 55.58133 40.06707 41.07909   0.00000 110.54086   0.00000 27.29227  11.37497  5.27474  0.98840
 1233.8  8.87137 46.60624  89.66478 55.59740 40.08510 41.09627   0.00000 110.45582   0.00000 27.27127  12.93613  4.63817  1.09376
 1234.0  8.67359 46.62238  90.67049 55.63760 40.10353 41.10918   0.00000 110.41295   0.00000 27.26069  14.71657  4.07704  1.07762
 1234.2  8.47160 46.68838  90.38760 55.53445 40.11763 41.10525   0.00000 110.84736   0.00000 27.36794  11.43581  5.24668  1.01162
 1234.4  8.27383 46.74473  91.02859 55.81836 40.13130 41.13029   0.00000 110.96136   0.00000 27.39609  12.23241  4.90500  0.95527
 1234.6  8.07180 46.40287  91.22140 55.53200 40.14392 41.16161   0.00000 110.35019   0.00000 27.24520  14.90450  4.02563  1.29713
 1234.8  7.86980 46.63461  90.46486 55.34209 40.15659 41.15554   0.00000 110.37836   0.00000 27.25215  12.49661  4.80130  1.06539
 1235.0  7.67203 46.55167  89.22005 55.64842 40.16562 41.17100   0.00000 110.45650   0.00000 27.27144   9.88770  6.06815  1.14833
 1235.2  7.47187 46.47871  90.36739 56.13524 40.22762 41.18270   0.00000 111.25844   0.00000 27.46944  11.38357  5.27075  1.22129
 1235.4  7.27277 46.50878  89.38361 56.46754 40.28264 41.19593   0.00000 110.62975   0.00000 27.31422   9.04996  6.62986  1.19122
 1235.6  7.06980 46.52030  89.04638 56.56461 40.32814 41.21275   0.00000 110.47048   0.00000 27.27489  11.34834  5.28712  1.17970
 1235.8  6.87070 46.74257  88.61755 56.56150 40.36477 41.19144   0.00000 110.52724   0.00000 27.28891  11.56101  5.18986  0.95743
 1236.0  6.67160 46.95794  88.90213 56.48484 40.39801 41.19216   0.00000 111.33633   0.00000 27.48867  10.50966  5.70904  0.74206
 1236.2  6.47254 46.67151  89.67574 56.51208 40.42823 41.18241   0.00000 110.86761   0.00000 27.37295  21.20745  2.82920  1.02849
 1236.4  6.27344 46.41987  89.91697 56.50988 40.44547 41.17917   0.00000 110.45134   0.00000 27.27017  24.34493  2.46458  1.28013
 1236.6  6.07437 46.12915  92.11807 56.43950 40.45882 41.19283   0.00000 110.28213   0.00000 27.22839  25.61553  2.34233  1.57086
 1236.8  5.87137 45.41989  95.62946 56.38999 40.47747 41.20102   0.00000 110.14973   0.00000 27.19570  13.72370  4.37200  2.28011
 1237.0  5.67227 45.77816  94.94658 56.42878 40.49705 41.18937   0.00000 110.78379   0.00000 27.35225  13.83443  4.33701  1.92184
 1237.2  5.47320 46.45360  90.68211 56.34586 40.51718 41.19433   0.00000 111.13132   0.00000 27.43805  12.31801  4.87092  1.24640
 1237.4  5.27020 46.05197  92.08335 56.38111 40.53273 41.19931   0.00000 110.99836   0.00000 27.40523  20.76225  2.88986  1.64803
