~Version information
# This file generated by the LAST component (v1.3.0). Tver. R.E.A. 1999-2008
  VERS.                                             2.0 : CWLS LAS Version
  WRAP.                                              NO : Wrap mode
~Well information
  STRT.M                                             47 : Started at
  STOP.M                                         2016.4 : Stopped at
  STEP.M                                            0.2 : Step
  NULL.                                          -32768 : Null value
  COMP.                          ООО "Газпромгеоресурс" : Company
  WELL.                        Мест. Акшабулак Скв. 494 : Well
  FLD .                                       Акшабулак : Field
  CTRY.                                          Россия : Country
  SRVC.                                            ГЕРС : Service company
  DATE.                                      24.04.2024 : Date
~Curve information
  DEPTH.                                                : 
  S123456.м.                                            : Тальблок
  S200.т.                                               : Вес на крюке
  S300.атм.                                             : Давление нагн.
  S720.м3                                               : Сум.объем в емк
  S800.°С                                               : Темпер. на вх.
  S900.°С                                               : Темпер. на вых.
  S1200.мин-1                                           : Обороты рот.
  S50 .мин-1                                            : Ходы 1 нас.
  S51 .мин-1                                            : Ходы 2 нас.
  S1001.л/c                                             : Расх на вх.
  S106.м/ч                                              : Скорость бур.
  S107.мин/м                                            : ДМК
  S202.т.                                               : Нагрузка на дол
~Other information
~ASCII Log data
# ...
  964.8  4.99277 38.79847  92.36547 50.62231 37.28489 35.14019  73.08554 108.37708   0.00000 26.75804  19.60770  3.06002  0.70153
  965.0  4.79758 38.21722  91.48472 50.75631 37.28550 35.14463  72.81018 107.86465   0.00000 26.63152  30.02119  1.99859  1.28278
  965.2  4.59852 38.34699  91.27380 50.73161 37.29006 35.14468  72.86626 107.52727   0.00000 26.54822  24.40135  2.45888  1.15301
  965.4  4.39551 38.25662  90.85607 50.68757 37.29511 35.14609  73.04535 107.41429   0.00000 26.52033  28.10810  2.13462  1.24338
  965.6  4.19254 39.11395  90.74629 50.65778 37.29499 35.14534  73.16158 107.36278   0.00000 26.50761  22.28353  2.69257  0.39228
  965.8  3.99734 38.16893  90.91348 50.72966 37.29768 35.14588  72.97979 107.36195   0.00000 26.50741  59.52596  1.00796  1.33107
  966.0  3.79824 38.65150  90.79441 50.69931 37.29955 35.14657  73.13907 107.48664   0.00000 26.53819  23.74144  2.52723  0.87320
  966.2  3.60309 38.25461  92.21481 50.71914 37.30418 35.14738  73.27267 108.41887   0.00000 26.76836  24.37254  2.46179  1.24539
  966.4  3.39617 37.46479  92.32253 50.80778 37.30747 35.14805  73.08418 108.40587   0.00000 26.76515  41.05447  1.46147  2.03521
  966.6  3.19320 36.97699  91.79821 50.77504 37.30795 35.15080  72.64045 108.07223   0.00000 26.68277  47.44712  1.26457  2.52301
  966.8  2.99410 37.58755  91.58755 50.71857 37.31132 35.15161  73.05051 107.79793   0.00000 26.61505  38.13456  1.57338  1.91245
  967.0  2.79891 37.97955  91.08553 50.64798 37.31023 35.14878  72.99369 107.62800   0.00000 26.57309  56.89380  1.05460  1.52045
  967.2  2.59594 37.36291  90.91696 50.70233 37.31055 35.14920  73.16108 107.42558   0.00000 26.52312  42.97593  1.39613  2.13709
  967.4  2.40074 37.63619  90.75629 50.70335 37.31366 35.15022  73.25988 107.29436   0.00000 26.49072  50.49424  1.18825  1.86381
  967.6  2.19387 38.21905  90.81678 50.89573 37.31802 35.14804  73.26649 107.25091   0.00000 26.47999  51.00016  1.17647  1.28095
  967.8 11.52227 38.11252  91.56030 50.69426 37.31582 35.13678  51.93708 107.81138   0.00000 26.61837  30.97189  1.93724  1.42785
  968.0 11.32449 39.43562  97.57954 50.80761 37.30130 35.05039  73.30906 111.75937   0.00000 27.59312  34.50531  1.73886  0.10607
  968.2 11.12250 38.52531  97.63963 50.58414 37.30025 35.05843  75.12974 111.58122   0.00000 27.54913  57.10828  1.05064  0.97469
  968.4 10.92891 37.83714  97.52312 50.64135 37.30027 35.05566  74.81105 111.48363   0.00000 27.52504  65.74593  0.91260  1.66286
  968.6 10.72273 38.29210  97.18914 50.54878 37.30145 35.05485  74.40776 111.36875   0.00000 27.49668  32.28070  1.85870  1.20790
  968.8 10.52492 37.57883  97.18029 50.41433 37.30624 35.06936  73.55141 110.95354   0.00000 27.39416  37.08079  1.61809  1.92116
  969.0 10.32293 37.97228  97.78032 50.51585 37.30872 35.08002  72.92987 111.19861   0.00000 27.45467  57.73098  1.03930  1.52772
  969.2 10.12516 37.12112  97.75865 50.30613 37.30790 35.07404  73.09217 111.11562   0.00000 27.43418  48.11390  1.24704  2.37888
  969.4  9.92316 37.17591  97.39272 50.39841 37.31093 35.08205  73.44655 111.03836   0.00000 27.41510  58.92167  1.01830  2.32409
  969.6  9.72535 37.84528  97.36023 50.28860 37.30389 35.08538  73.18503 110.91764   0.00000 27.38530  51.22539  1.17129  1.65472
  969.8  9.52758 37.23999  97.48201 50.17815 37.29741 35.07971  73.08419 110.89851   0.00000 27.38057  47.83517  1.25431  2.26001
  970.0  9.32559 38.20008  97.40427 50.23975 37.29153 35.08408  72.89145 110.91379   0.00000 27.38435  48.11390  1.24704  1.29992
  970.2  9.12359 37.94733  97.40781 50.21351 37.29105 35.09032  72.63132 110.87586   0.00000 27.37498  38.69207  1.55071  1.55267
  970.4  8.92160 38.07565  97.78596 50.22930 37.28439 35.09349  72.58937 111.11281   0.00000 27.43348  47.82446  1.25459  1.42435
  970.6  8.73223 37.22109  98.63095 50.02670 37.28002 35.09081  72.74023 111.49500   0.00000 27.52785  48.78297  1.22994  2.27891
  970.8  8.52184 37.98115  98.27898 50.03955 37.27604 35.09552  72.96093 111.38036   0.00000 27.49954  32.55423  1.84308  1.51885
  971.0  8.32824 37.48692  97.85768 49.95309 37.27498 35.09716  72.75088 111.04117   0.00000 27.41580  31.51313  1.90397  2.01308
  971.2  8.12203 37.57998  97.14338 50.07950 37.26628 35.09723  72.17760 110.70095   0.00000 27.33180  20.53943  2.92121  1.92002
  971.4  7.92848 37.88164  97.28995 49.99209 37.26071 35.10918  72.17601 110.70557   0.00000 27.33294  21.57981  2.78038  1.61836
  971.6  7.72227 37.45760  97.37420 50.02128 37.25437 35.09972  72.12894 110.86994   0.00000 27.37352  21.45378  2.79671  2.04240
  971.8  7.52445 37.41737  99.80563 49.90841 37.25143 35.12650  72.27528 112.30714   0.00000 27.72836  25.81885  2.32388  2.08263
  972.0  7.32324 37.51665  99.80192 49.96420 37.24648 35.12812  72.83661 112.47113   0.00000 27.76885  19.82908  3.02586  1.98335
  972.2  7.12418 38.69542  99.31844 49.90012 37.24012 35.13574  72.82439 112.20657   0.00000 27.70353  16.06530  3.73476  0.80459
  972.4  6.92508 38.58049  98.54428 49.85903 37.23634 35.14463  72.53227 111.82853   0.00000 27.61019  17.91524  3.34910  0.91952
  972.6  6.72207 36.96663  98.61307 49.75801 37.22694 35.15949  72.51666 111.89202   0.00000 27.62587   6.74875  8.89053  2.53337
  972.8  6.52301 36.84975  98.71197 49.68330 37.21350 35.17396  73.04124 112.10931   0.00000 27.67952   7.96116  7.53659  2.65025
  973.0  6.32391 35.22939  98.13077 49.54686 37.20151 35.17963  73.00695 111.77625   0.00000 27.59728  12.19411  4.92041  4.27062
  973.2  6.12484 35.55919  98.09398 49.64088 37.19934 35.18194  74.53907 112.13315   0.00000 27.68540  10.91218  5.49844  3.94081
  973.4  5.92184 34.96703  98.03376 49.54733 37.19331 35.18401  74.60767 112.03678   0.00000 27.66161   8.95705  6.69863  4.53297
  973.6  5.72273 34.78350  97.51903 49.55863 37.19114 35.19043  74.65880 111.77364   0.00000 27.59664   7.12249  8.42402  4.71650
  973.8  5.52367 35.11320  97.75935 49.54333 37.19031 35.19598  74.97264 112.01740   0.00000 27.65683   8.24973  7.27297  4.38680
  974.0  5.32848 34.83224  97.09438 49.50558 37.19159 35.17063  74.79799 111.62582   0.00000 27.56014   8.91767  6.72822  4.66776
  974.2  5.12160 34.23028  97.58232 49.49268 37.19520 35.20465  74.93870 112.09648   0.00000 27.66608   9.14830  6.55860  5.26972
  974.4  4.92250 33.93615  96.80089 49.45747 37.20348 35.20870  74.96019 111.80344   0.00000 27.59685   5.26935 11.38660  5.56385
  974.6  4.72730 34.69295  97.14337 49.31429 37.21318 35.21643  75.29044 112.19136   0.00000 27.69978   8.84603  6.78270  4.80705
  974.8  4.52434 34.24804  96.71111 49.29749 37.22099 35.21334  70.74693 111.80461   0.00000 27.60429  11.56437  5.18835  5.25196
  975.0  4.32523 34.11079  96.50434 49.32810 37.23195 35.21589  70.22843 111.77753   0.00000 27.59760   9.90007  6.06056  5.38921
  975.2  4.12227 34.01068  97.35435 49.28673 37.24261 35.22810  70.26385 112.30905   0.00000 27.72883  10.52800  5.69909  5.48932
  975.4  3.92316 34.44292  96.59708 49.26857 37.25681 35.22676  70.26979 111.84138   0.00000 27.61337   9.42800  6.36402  5.05708
  975.6  3.72797 34.55595  96.49944 49.25079 37.27307 35.24164  70.34727 111.79242   0.00000 27.60128   9.50619  6.31167  4.94405
  975.8  3.52500 34.32212  97.58216 49.18810 37.28415 35.24634  70.34396 112.37580   0.00000 27.74531  12.19395  4.92047  5.17787
  976.0  3.32199 34.84646  96.62823 49.21280 37.30122 35.25678  70.35188 111.84274   0.00000 27.61768   8.76071  6.84876  4.65354
  976.2  3.12293 35.13738  96.90132 49.18073 37.31772 35.26118  70.48441 111.96242   0.00000 27.64325   8.43014  7.11732  4.36262
  976.4  2.92383 35.17493  97.29821 49.13491 37.33438 35.26258  70.47623 112.16939   0.00000 27.69435   9.61109  6.24279  4.32507
  976.6  2.72473 35.23320  96.54523 49.09526 37.34967 35.25964  70.47061 111.76347   0.00000 27.59413  15.38020  3.90112  4.26680
  976.8  2.52176 35.44680  96.68263 49.08609 37.36161 35.26344  70.59336 111.82426   0.00000 27.60914   9.87338  6.07694  4.05320
  977.0  2.32266 36.13301  97.53316 49.16759 37.37514 35.26744  70.75291 112.30206   0.00000 27.72711   8.85189  6.77821  3.36699
