~Version information
# This file generated by the LAST component (v1.3.0). Tver. R.E.A. 1999-2008
  VERS.                                             2.0 : CWLS LAS Version
  WRAP.                                              NO : Wrap mode
~Well information
  STRT.M                                             47 : Started at
  STOP.M                                         2016.4 : Stopped at
  STEP.M                                            0.2 : Step
  NULL.                                          -32768 : Null value
  COMP.                          ООО "Газпромгеоресурс" : Company
  WELL.                        Мест. Акшабулак Скв. 494 : Well
  FLD .                                       Акшабулак : Field
  CTRY.                                          Россия : Country
  SRVC.                                            ГЕРС : Service company
  DATE.                                      24.04.2024 : Date
~Curve information
  DEPTH.                                                : 
  S123456.м.                                            : Тальблок
  S200.т.                                               : Вес на крюке
  S300.атм.                                             : Давление нагн.
  S720.м3                                               : Сум.объем в емк
  S800.°С                                               : Темпер. на вх.
  S900.°С                                               : Темпер. на вых.
  S1200.мин-1                                           : Обороты рот.
  S50 .мин-1                                            : Ходы 1 нас.
  S51 .мин-1                                            : Ходы 2 нас.
  S1001.л/c                                             : Расх на вх.
  S106.м/ч                                              : Скорость бур.
  S107.мин/м                                            : ДМК
  S202.т.                                               : Нагрузка на дол
~Other information
~ASCII Log data
   47.2  6.18000 14.50000  25.30000 52.09000 27.02000 27.25000  68.10000 104.60000   0.00000 19.96000  19.69000  3.05000  1.40000
   47.4  5.98039 14.50594  25.36803 52.20026 27.00512 27.24619  68.02663 104.68839   0.00000 19.97071  13.83603  4.33650  1.44406
   47.6  5.78129 14.50309  25.32191 52.09047 27.01959 27.24660  68.09755 104.60628   0.00000 19.95505  19.68586  3.04787  1.44691
   47.8  5.58219 14.48530  25.39750 51.90167 27.03483 27.23668  68.04578 104.96294   0.00000 20.02309   9.84509  6.09441  1.46470
   48.0  5.38312 14.52794  25.54160 51.80760 27.05034 27.23037  67.90344 105.12302   0.00000 20.05363  13.15672  4.56041  1.42206
   48.2  5.18402 14.73546  25.43066 51.81140 27.06278 27.24141  67.92403 104.92182   0.00000 20.01524  13.94106  4.30383  1.21454
   48.4  4.98105 14.68033  25.24963 51.76218 27.07181 27.23516  68.10320 104.70489   0.00000 19.97386  12.23101  4.90556  1.26967
   48.6  4.78195 14.73437  25.30069 51.48040 27.08914 27.25166  67.90392 105.10022   0.00000 20.04927   6.74718  8.89261  1.21563
   48.8  4.57895 14.75739  24.85875 51.29961 27.10335 27.24622  67.99858 104.95044   0.00000 20.02070  20.63426  2.90779  1.19261
   49.0  4.38379 14.57595  24.68458 51.25266 27.11541 27.25737  68.06580 104.65977   0.00000 19.96526   5.89344 10.18081  1.37405
   49.2  4.18469 14.89109  24.81442 51.25235 27.12878 27.26523  67.86066 104.88745   0.00000 20.00869   4.27293 14.04188  1.05891
   49.4  3.98172 14.93308  24.64941 50.48597 27.13728 27.27762  68.01437 104.67561   0.00000 19.96828   8.57976  6.99320  1.01692
   49.6  3.77871 14.89823  25.09071 50.32815 27.13783 27.27496  67.88230 105.29269   0.00000 20.08599  16.98042  3.53348  1.05177
   49.8  3.57961 14.88016  24.87597 49.24200 27.13909 27.27331  67.90504 104.81912   0.00000 19.99565  10.49884  5.71492  1.06984
   50.0  3.38445 14.95015  24.61894 48.87777 27.14586 27.26674  67.91146 104.52128   0.00000 19.93884   8.12435  7.38521  0.99985
   50.2  3.18145 14.97686  24.83255 48.02709 27.15214 27.27596  67.85181 104.95298   0.00000 20.02119  11.12902  5.39131  0.97314
   50.4  2.98238 14.90218  24.81419 48.03011 27.15745 27.27060  67.76791 104.85532   0.00000 20.00256  17.65191  3.39907  1.04782
   50.6  2.77937 14.93954  24.71197 48.12193 27.15915 27.24863  67.86318 104.53722   0.00000 19.94188  29.70031  2.02018  1.01046
   50.8  2.58027 14.85023  24.62775 48.19492 27.16082 27.23874  67.89318 104.36434   0.00000 19.90890  31.16356  1.92533  1.09977
   51.0 12.05250 14.68372  24.54590 48.22427 27.16613 27.23730  60.53518 104.40322   0.00000 19.91631  13.50993  4.44118  1.28036
   51.2 11.85473 16.49046  27.40717 48.67331 26.95388 27.20031  98.59879 108.17142   0.00000 20.63515  22.03549  2.72288  1.33954
   51.4 11.65273 16.72041  27.26733 48.64777 26.95499 27.20305  98.44796 108.04501   0.00000 20.61103  60.57742  0.99047  1.10959
   51.6 11.45074 16.48460  27.24741 48.65722 26.95486 27.20227  98.46324 107.97512   0.00000 20.59770  53.95441  1.11205  1.34540
   51.8 11.25293 16.60365  27.19622 48.60768 26.95374 27.20501  98.60276 107.93309   0.00000 20.58968  75.75485  0.79203  1.22635
   52.0 11.05516 16.66526  27.19532 48.53882 26.95986 27.20065  98.53226 107.90387   0.00000 20.58411  67.32445  0.89121  1.16474
   52.2 10.86156 16.32361  27.22511 48.55632 26.95804 27.20381  98.39468 107.89597   0.00000 20.58260  56.50208  1.06191  1.50639
   52.4 10.65117 16.08041  27.34139 48.73996 26.95928 27.20820  98.36623 107.94699   0.00000 20.59233  62.80009  0.95541  1.74959
   52.6 10.45336 13.68410  27.27183 48.60543 26.96172 27.20779  97.98875 107.89866   0.00000 20.58311  36.36605  1.64989  4.14590
   52.8 10.25559 15.54818  27.28497 48.45630 26.96502 27.21999  98.33448 107.92085   0.00000 20.58735  16.41976  3.65413  2.28182
   53.0 10.05359 15.84940  27.16208 48.51217 26.97151 27.18625  98.49545 108.00799   0.00000 20.60397  29.31551  2.04670  1.98060
   53.2  9.85160 16.33177  27.03327 48.41605 26.97386 27.16113  98.48553 108.02863   0.00000 20.60791  31.29978  1.91695  1.49823
   53.4  9.65383 16.28226  27.08319 48.44132 26.97355 27.17004  98.46713 108.04463   0.00000 20.61096  50.14316  1.19657  1.54773
   53.6  9.45184 16.47165  27.07159 48.43711 26.97991 27.17959  98.33381 108.05678   0.00000 20.61328  19.86698  3.02009  1.35836
   53.8  9.25402 16.50497  27.06761 48.30477 26.98530 27.19749  98.49036 107.95894   0.00000 20.59461  19.43809  3.08672  1.32503
   54.0  9.05203 16.57609  27.00213 48.49728 26.98738 27.15561  98.51167 107.96069   0.00000 20.59495  22.05621  2.72032  1.25391
   54.2  8.85426 16.58511  27.07022 48.41410 26.99279 27.17782  98.51750 108.49573   0.00000 20.69701  13.38137  4.48384  1.24489
   54.4  8.65227 16.53097  26.87739 48.29631 26.99534 27.19998  98.27575 108.06870   0.00000 20.61555   8.30057  7.22842  1.29903
   54.6  8.25246 15.48460  26.30246 48.23083 27.00302 27.20995  98.30463 107.79187   0.00000 20.56274  11.98956  5.00435  2.34540
   54.8  8.05047 16.18882  26.27153 48.17592 27.01196 27.22833  98.35482 107.81716   0.00000 20.56757  10.04353  5.97400  1.64118
   55.0  7.85269 16.41208  26.32311 48.08694 27.02786 27.20326  98.41190 108.19346   0.00000 20.63935   7.35465  8.15810  1.41792
   55.2  7.65070 16.17821  26.31282 48.13008 27.04613 27.20183  98.32436 108.09306   0.00000 20.62020   9.96030  6.02392  1.65179
   55.4  7.45207 16.66118  26.05400 48.01864 27.06943 27.23119  98.31217 107.62338   0.00000 20.53060   5.76762 10.40290  1.16882
   55.6  7.25297 16.65516  25.85512 47.97784 27.09356 27.23017  98.23042 107.68295   0.00000 20.54197   8.82466  6.79913  1.17484
   55.8  7.05387 16.64949  26.06185 47.99352 27.11278 27.24242  98.32127 107.85524   0.00000 20.57483   8.87000  6.76438  1.18051
   56.0  6.85090 16.67307  26.18232 47.92459 27.13555 27.21859  98.30403 108.15385   0.00000 20.63180   7.10730  8.44203  1.15694
   56.2  6.65180 16.63453  26.00937 47.86881 27.16048 27.24766  98.26859 107.57806   0.00000 20.52196   7.31330  8.20423  1.19547
   56.4  6.45273 16.76511  25.94253 47.77499 27.18468 27.26292  98.31718 107.48701   0.00000 20.50459   6.19988  9.67761  1.06489
   56.6  6.25363 16.63559  26.02782 47.74346 27.21140 27.25385  98.26534 107.74217   0.00000 20.55326   6.08293  9.86366  1.19441
   56.8  6.05062 16.66422  26.11090 47.72054 27.24228 27.26575  98.32534 107.62121   0.00000 20.53019   5.06770 11.83970  1.16578
   57.0  5.85156 16.64713  25.87620 47.66970 27.27389 27.28156  98.14007 107.33138   0.00000 20.47490   6.43232  9.32790  1.18287
   57.2  5.65246 16.50234  25.78042 47.71183 27.31055 27.28435  98.35973 107.78407   0.00000 20.56125   3.62710 16.54215  1.32766
   57.4  5.45730 16.66422  25.53666 47.38427 27.35999 27.30191  98.36057 107.29800   0.00000 20.46853   2.93970 20.41021  1.16578
   57.6  5.25039 16.61155  25.47611 47.31766 27.39618 27.30014  98.29321 107.38181   0.00000 20.48452  10.72971  5.59195  1.21845
   57.8  5.05129 16.57930  25.57849 47.27298 27.40978 27.31810  97.97988 107.95670   0.00000 20.59419  10.09379  5.94425  1.25070
   58.0  4.85613 16.59622  25.50667 47.23887 27.42361 27.30339  98.24266 107.44345   0.00000 20.49628  12.14782  4.93916  1.23378
   58.2  4.65312 16.67001  25.30680 47.26803 27.43511 27.30042  98.28251 107.21196   0.00000 20.45212  17.39925  3.44842  1.15999
   58.4  4.45406 16.63624  25.05468 47.02866 27.43301 27.31063  98.22622 107.07661   0.00000 20.42630  21.58726  2.77942  1.19376
   58.6  4.25105 16.66307  24.96642 47.05555 27.43522 27.31396  98.18891 107.04245   0.00000 20.41978  25.96277  2.31100  1.16693
   58.8  4.05195 16.73342  24.86032 47.15034 27.42887 27.31075  98.30050 107.01908   0.00000 20.41532  32.28220  1.85861  1.09658
   59.0  3.85289 16.67267  24.71287 47.15260 27.42708 27.31893  98.18776 106.97943   0.00000 20.40776  30.44529  1.97075  1.15733
   59.2  3.65770 16.72099  24.69554 47.02663 27.41856 27.31257  97.95330 107.07912   0.00000 20.42678  37.77824  1.58822  1.10901
   59.4  3.45082 16.54535  24.83513 46.98856 27.39373 27.30821  98.24222 106.96790   0.00000 20.40556  39.71223  1.51087  1.28465
