~Version information
# This file generated by the LAST component (v1.3.0). Tver. R.E.A. 1999-2008
  VERS.                                             2.0 : CWLS LAS Version
  WRAP.                                              NO : Wrap mode
~Well information
  STRT.M                                             47 : Started at
  STOP.M                                         2016.4 : Stopped at
  STEP.M                                            0.2 : Step
  NULL.                                          -32768 : Null value
  COMP.                          ООО "Газпромгеоресурс" : Company
  WELL.                        Мест. Акшабулак Скв. 494 : Well
  FLD .                                       Акшабулак : Field
  CTRY.                                          Россия : Country
  SRVC.                                            ГЕРС : Service company
  DATE.                                      24.04.2024 : Date
~Curve information
  DEPTH.                                                : 
  S123456.м.                                            : Тальблок
  S200.т.                                               : Вес на крюке
  S300.атм.                                             : Давление нагн.
  S720.м3                                               : Сум.объем в емк
  S800.°С                                               : Темпер. на вх.
  S900.°С                                               : Темпер. на вых.
  S1200.мин-1                                           : Обороты рот.
  S50 .мин-1                                            : Ходы 1 нас.
  S51 .мин-1                                            : Ходы 2 нас.
  S1001.л/c                                             : Расх на вх.
  S106.м/ч                                              : Скорость бур.
  S107.мин/м                                            : ДМК
  S202.т.                                               : Нагрузка на дол
~Other information
~ASCII Log data
# ...
  307.6  5.63687 25.01184  42.27208 52.78287 26.38314 27.66951  72.90549 115.61675   0.00000 28.32899  16.97814  3.53396  3.74816
  307.8  5.43387 25.75748  42.16886 52.77249 26.38702 27.67641  73.09477 115.62666   0.00000 28.33142  15.95722  3.76005  3.00252
  308.0  5.23090 25.84146  42.05765 52.71379 26.39512 27.67941  73.01700 115.64887   0.00000 28.33687  17.82822  3.36545  2.91854
  308.2  5.03180 26.00194  42.05490 52.84178 26.39550 27.67815  72.99957 115.68608   0.00000 28.34598  16.58769  3.61714  2.75806
  308.4  4.83270 26.11363  42.55757 52.85361 26.38490 27.68402  73.25621 116.66752   0.00000 28.58646  17.91158  3.34979  2.64637
  308.6  4.63363 25.35953  42.74151 52.75502 26.38482 27.67976  73.19254 116.51873   0.00000 28.55000  23.73166  2.52827  3.40047
  308.8  4.43453 25.91187  42.51477 52.78297 26.39050 27.68247  73.21698 116.20507   0.00000 28.47315  18.93193  3.16925  2.84813
  309.0  4.23156 25.72505  42.50618 52.77230 26.39923 27.68979  73.20510 115.99400   0.00000 28.42143  16.82310  3.56653  3.03495
  309.2  4.03637 26.01819  42.40127 52.63712 26.40850 27.69535  73.14360 115.86397   0.00000 28.38957  16.38269  3.66240  2.74181
  309.4  3.83336 25.01112  42.49221 52.65304 26.41289 27.69531  72.96180 115.98756   0.00000 28.41985  17.22579  3.48315  3.74888
  309.6  3.63430 24.01974  42.17374 52.68041 26.40314 27.69601  72.76974 115.72704   0.00000 28.35602  16.83681  3.56362  4.74026
  309.8  3.43129 24.74172  42.16340 52.64444 26.39675 27.70109  72.90586 115.56669   0.00000 28.31673   9.95573  6.02668  4.01828
  310.0  3.23223 25.20171  42.47387 52.64597 26.40646 27.70738  73.04330 116.11895   0.00000 28.45205  11.18837  5.36271  3.55829
  310.2  3.03312 24.89938  42.83915 52.65683 26.39754 27.70886  73.06196 116.39618   0.00000 28.51997  11.94238  5.02413  3.86062
  310.4  2.83402 23.91625  42.60767 52.59570 26.38773 27.70917  72.89105 116.03121   0.00000 28.43055  15.38053  3.90104  4.84375
  310.6  2.63496 24.64882  42.34292 52.56210 26.39291 27.71031  72.97186 115.71336   0.00000 28.35266  25.50297  2.35267  4.11118
  310.8  2.43586 25.75598  42.21555 52.64137 26.39986 27.71068  73.06065 115.55920   0.00000 28.31490  21.58685  2.77947  3.00402
  311.0  2.23676 24.43053  42.18737 52.54800 26.39689 27.70717  72.90148 115.49418   0.00000 28.29896  27.35786  2.19315  4.32947
  311.2  2.03379 25.57588  42.10590 52.63902 26.38626 27.70966  73.02932 115.46255   0.00000 28.29121  29.51413  2.03292  3.18412
  311.4 11.47598 25.44590  42.86921 52.43845 26.32814 27.68046  72.15897 116.84618   0.00000 28.63023   4.70311 12.75752  3.44123
  311.6 11.27820 24.02651  43.09005 52.37745 26.35074 27.66029  71.28862 117.15819   0.00000 28.70668  11.95949  5.01693  4.93349
  311.8 11.07621 25.41666  43.01551 52.31842 26.38032 27.66397  70.64183 117.06363   0.00000 28.68352  26.97170  2.22455  3.54334
  312.0 10.87840 24.33116  43.24698 52.27310 26.40965 27.66697  70.70779 117.28022   0.00000 28.73659  11.39717  5.26446  4.62884
  312.2 10.67641 27.44559  43.58527 52.30453 26.43744 27.66709  71.17412 118.04642   0.00000 28.92433  30.81032  1.94740  1.51441
  312.4 10.48285 25.16655  43.40738 52.22743 26.44932 27.66990  70.88178 117.86802   0.00000 28.88061  25.24284  2.37691  3.79345
  312.6 10.27664 26.15738  43.44500 52.17630 26.47093 27.66833  70.99174 117.66127   0.00000 28.82995  16.27774  3.68602  2.80261
  312.8 10.07887 24.37070  43.71027 52.26830 26.48918 27.66929  70.72099 117.47367   0.00000 28.78399  26.93685  2.22743  4.58930
  313.0  9.87684 23.36236  43.55731 52.21662 26.50485 27.66956  70.52318 117.18617   0.00000 28.71354  24.73250  2.42596  5.59764
  313.2  9.67484 23.71690  43.25659 52.24590 26.52555 27.67255  70.60117 117.00229   0.00000 28.66849  15.39914  3.89632  5.24310
  313.4  9.47707 25.71117  43.21430 52.27228 26.55104 27.67840  70.86520 117.21253   0.00000 28.72000   8.73069  6.87231  3.24883
  313.6  9.27508 24.20114  43.87624 52.30609 26.57443 27.67600  70.71687 117.88055   0.00000 28.88368  17.31228  3.46575  4.75886
  313.8  9.07730 23.33793  43.92316 52.21715 26.59323 27.67109  70.61530 117.51706   0.00000 28.79462  21.01569  2.85501  5.62207
  314.0  8.87531 22.78070  43.46072 52.25410 26.61038 27.67356  70.46938 117.12672   0.00000 28.69897  17.98091  3.33687  6.17930
  314.2  8.67750 23.89348  43.12907 52.31381 26.62905 27.67450  70.55098 116.92242   0.00000 28.64892  18.93580  3.16860  5.06652
  314.4  8.47973 23.59723  42.92047 52.34809 26.64656 27.67910  70.80928 116.85124   0.00000 28.63148  18.93612  3.16855  5.36277
  314.6  8.27773 24.22516  42.79943 52.37955 26.66519 27.68358  76.34641 116.84251   0.00000 28.62934  15.81891  3.79293  4.73484
  314.8  8.07574 23.48628  43.32575 52.36425 26.68300 27.68545  76.34303 117.88718   0.00000 28.88531  18.27145  3.28381  5.47372
  315.0  7.87793 24.19517  43.49887 52.30254 26.69938 27.68373  76.38466 117.82175   0.00000 28.86927  14.12578  4.24755  4.76483
  315.2  7.67594 23.89229  43.15605 52.33233 26.71732 27.69423  76.20595 117.16753   0.00000 28.70897  15.87706  3.77904  5.06771
  315.4  7.47547 23.78514  42.88656 52.28526 26.73006 27.69725  77.08607 116.78224   0.00000 28.61457  14.40985  4.16382  5.17486
  315.6  7.27641 24.00558  43.02985 52.19873 26.74331 27.70607  77.83329 116.79380   0.00000 28.61740  11.63439  5.15713  4.95442
  315.8  7.07730 24.89204  43.06364 52.18884 26.75732 27.71613  76.83781 117.52588   0.00000 28.79678  10.43798  5.74824  4.06796
  316.0  6.87820 24.47578  43.16979 52.16932 26.77115 27.72475  76.87292 117.68971   0.00000 28.83692  12.72912  4.71360  4.48422
  316.2  6.67523 24.14788  42.85511 52.13505 26.78597 27.73328  76.77720 117.14397   0.00000 28.70320  12.42769  4.82793  4.81212
  316.4  6.47613 23.94562  42.68713 52.22075 26.80031 27.74048  76.72644 116.80479   0.00000 28.62009  13.94075  4.30393  5.01438
  316.6  6.27707 24.19160  42.86694 52.20328 26.81850 27.74753  76.68599 116.83230   0.00000 28.62683  12.39941  4.83894  4.76840
  316.8  6.07797 23.54031  43.37017 52.14811 26.83779 27.75338  76.87507 117.87797   0.00000 28.88305  14.44107  4.15482  5.41969
  317.0  5.87500 22.59743  43.70454 52.18749 26.85321 27.76349  76.88692 117.66561   0.00000 28.83102  15.42380  3.89009  6.36257
  317.2  5.67590 23.69782  43.59927 52.15525 26.87016 27.76658  76.79856 117.36842   0.00000 28.75820  14.05278  4.26962  5.26218
  317.4  5.47680 24.98844  43.70188 52.25249 26.88572 27.77989  76.72507 116.92882   0.00000 28.65048  11.48330  5.22498  3.97157
  317.6  5.27773 24.03487  43.96604 52.14702 26.88475 27.78591  76.66007 116.65624   0.00000 28.58370  15.64815  3.83432  4.92513
  317.8  5.07473 24.52037  44.72064 52.11557 26.88255 27.79140  76.78275 117.50100   0.00000 28.79068  15.54550  3.85964  4.43963
  318.0  4.87566 24.28750  45.34803 52.15008 26.87874 27.79645  76.87674 117.72065   0.00000 28.84450  14.68596  4.08554  4.67250
  318.2  4.67656 24.58158  45.18591 52.07255 26.87609 27.79916  76.78106 117.29507   0.00000 28.74023  13.57583  4.41962  4.37842
  318.4  4.47746 24.44838  45.19790 51.96088 26.87225 27.80475  76.72950 116.99220   0.00000 28.66601  17.38007  3.45223  4.51162
  318.6  4.27840 24.77832  45.44556 52.05205 26.87166 27.81261  76.68456 116.86821   0.00000 28.63563  12.15343  4.93688  4.18168
  318.8  4.07539 24.77510  45.43773 52.05018 26.86909 27.82011  76.66099 116.96233   0.00000 28.65870  18.35609  3.26867  4.18490
  319.0  3.87633 24.42490  46.03243 52.05301 26.87108 27.82386  76.85569 117.92510   0.00000 28.89460  18.86270  3.18088  4.53510
  319.2  3.67723 23.89178  45.83300 51.96991 26.87569 27.82274  76.83398 117.55990   0.00000 28.80511  20.13224  2.98029  5.06822
  319.4  3.47812 23.90696  45.69314 51.93062 26.88028 27.82835  76.76571 117.28162   0.00000 28.73693  21.58354  2.77990  5.05304
  319.6  3.27516 24.32891  45.82798 51.93773 26.88137 27.82707  76.72644 117.19934   0.00000 28.71677  19.74950  3.03805  4.63109
  319.8  3.07605 24.07799  45.60049 51.99688 26.88712 27.83343  76.68599 116.95369   0.00000 28.65658  22.11710  2.71283  4.88201
