~Version information
# This file generated by the LAST component (v1.3.0). Tver. R.E.A. 1999-2008
  VERS.                                             2.0 : CWLS LAS Version
  WRAP.                                              NO : Wrap mode
~Well information
  STRT.M                                             47 : Started at
  STOP.M                                         2016.4 : Stopped at
  STEP.M                                            0.2 : Step
  NULL.                                          -32768 : Null value
  COMP.                          ООО "Газпромгеоресурс" : Company
  WELL.                        Мест. Акшабулак Скв. 494 : Well
  FLD .                                       Акшабулак : Field
  CTRY.                                          Россия : Country
  SRVC.                                            ГЕРС : Service company
  DATE.                                      24.04.2024 : Date
~Curve information
  DEPTH.                                                : 
  S123456.м.                                            : Тальблок
  S200.т.                                               : Вес на крюке
  S300.атм.                                             : Давление нагн.
  S720.м3                                               : Сум.объем в емк
  S800.°С                                               : Темпер. на вх.
  S900.°С                                               : Темпер. на вых.
  S1200.мин-1                                           : Обороты рот.
  S50 .мин-1                                            : Ходы 1 нас.
  S51 .мин-1                                            : Ходы 2 нас.
  S1001.л/c                                             : Расх на вх.
  S106.м/ч                                              : Скорость бур.
  S107.мин/м                                            : ДМК
  S202.т.                                               : Нагрузка на дол
~Other information
~ASCII Log data
# ...
  568.0  2.97848 31.02717  69.29089 29.28730 29.22617 28.70415  92.39099 119.81641   0.00000 26.46845  14.56716  4.11885  3.80283
  568.2  2.77937 30.89234  69.33356 29.53631 29.22825 28.72480  92.28651 119.80762   0.00000 26.46651  22.26202  2.69517  3.93766
  568.4  2.58422 31.02710  69.13147 29.71218 29.22141 28.71732  92.24020 119.93922   0.00000 26.49558  34.44847  1.74173  3.80290
  568.6  2.38121 31.37426  69.97701 29.96287 29.22640 28.71424  92.72298 120.62410   0.00000 26.64687  30.63157  1.95876  3.45574
  568.8  2.18211 31.25465  70.03767 32.10062 29.23357 28.74181  92.53463 120.58611   0.00000 26.63848  28.22065  2.12610  3.57535
  569.0 11.91000 31.40000  68.25076 34.19690 28.84749 28.70653  92.45924 116.69324   0.00000 26.23397  20.92000  2.87000  3.50000
  569.2 11.71184 33.51726  70.53800 36.22451 29.22645 28.74498  92.38386 119.28706   0.00000 26.35151  32.17574  1.86476  1.66011
  569.4 11.50984 32.21573  69.98222 38.50942 29.22226 28.74465  92.30847 119.14164   0.00000 26.31939  52.27016  1.14788  3.01427
  569.6 11.31203 30.63639  69.73856 38.62989 29.21152 28.75791  92.23308 119.03827   0.00000 26.29655  11.89434  5.04442  4.59361
  569.8 11.11004 30.68860  69.57909 38.95485 29.19348 28.77460  92.15769 118.97068   0.00000 26.28162   6.15123  9.75415  4.54140
  570.0 10.91227 30.62094  69.74586 39.41831 29.19079 28.76886  92.08231 119.52342   0.00000 26.40372   6.60631  9.08223  4.60906
  570.2 10.71027 31.05970  68.97734 39.83291 29.19308 28.76665  91.96892 118.96605   0.00000 26.28060   6.58612  9.11006  4.17030
  570.4 10.51250 30.66760  68.62135 40.28098 29.20763 28.76329  91.94547 119.00445   0.00000 26.28908   6.64335  9.03159  4.56240
  570.6 10.31051 30.71157  68.82053 40.69469 29.21198 28.76707  91.93156 119.32182   0.00000 26.35919   6.16373  9.73437  4.51843
  570.8 10.11269 30.71681  68.19624 41.22958 29.23558 28.76768  91.89922 118.77473   0.00000 26.23833   7.04893  8.51193  4.51319
  571.0  9.91070 30.64312  68.32461 41.67760 29.25089 28.77222  91.75671 118.85554   0.00000 26.25618   7.60555  7.88898  4.58688
  571.2  9.71293 30.76881  68.86119 42.13990 29.28306 28.74119  91.90097 119.28432   0.00000 26.35091   7.98401  7.51502  4.46119
  571.4  9.31312 30.80414  67.91196 43.38265 29.31734 28.72365  91.85437 118.56628   0.00000 26.19228   7.00744  8.56233  4.42586
  571.6  9.11535 30.75855  68.64301 43.67552 29.32251 28.73692  91.84967 119.36007   0.00000 26.36764   7.52909  7.96909  4.47145
  571.8  8.91336 30.28650  67.93056 44.25325 29.34722 28.75088  91.62315 118.78030   0.00000 26.23956   7.77224  7.71978  4.94351
  572.0  8.71137 30.14188  67.71622 44.67172 29.35422 28.77588  91.72828 118.57488   0.00000 26.19418   5.96957 10.05098  5.08812
  572.2  8.51359 30.22447  68.36961 45.14588 29.37664 28.79948  91.83794 119.39410   0.00000 26.37515   6.06613  9.89098  5.00553
  572.4  8.31578 30.56191  67.90285 45.59364 29.39300 28.80232  91.68641 118.88115   0.00000 26.26184   6.74696  8.89290  4.66808
  572.6  8.10961 30.38186  67.86440 46.14583 29.39846 28.81063  91.71061 118.93613   0.00000 26.27399   5.54935 10.81209  4.84815
  572.8  7.91180 30.29772  68.12022 46.78615 29.40734 28.81545  91.64099 119.14957   0.00000 26.32114   6.41543  9.35245  4.93228
  573.0  7.70980 30.23761  67.71596 47.32911 29.44274 28.82360  91.69523 118.71906   0.00000 26.22603   6.52439  9.19626  4.99239
  573.2  7.51625 30.37602  68.21857 47.92929 29.45251 28.82951  91.74641 119.12956   0.00000 26.31672   4.41239 13.59806  4.85398
  573.4  7.31562 30.21179  67.93839 48.61074 29.47802 28.83260  91.52570 118.62335   0.00000 26.20489   6.36109  9.43234  5.01821
  573.6  7.11262 31.19610  67.98856 48.96132 29.48324 28.84046  91.84779 119.09925   0.00000 26.31002   8.05431  7.44943  4.03390
  573.8  6.91355 31.11411  70.68398 49.22767 29.49034 28.85254  91.88177 121.69479   0.00000 26.88340  12.93816  4.63745  4.11589
  574.0  6.71445 30.43760  70.22607 49.41115 29.49654 28.84884  91.69531 121.16972   0.00000 26.76740  16.90483  3.54928  4.79240
  574.2  6.51148 30.47058  70.21514 49.67029 29.49084 28.85176  91.73135 121.07745   0.00000 26.74702  13.62717  4.40297  4.75942
  574.4  6.31629 30.76521  70.30611 49.96755 29.46741 28.85213  91.66100 121.08006   0.00000 26.74760  17.65476  3.39852  4.46479
  574.6  6.11328 30.63035  70.51766 50.10543 29.48887 28.86102  91.65443 121.02712   0.00000 26.73590  19.90356  3.01454  4.59965
  574.8  5.91031 30.60200  70.02565 50.16392 29.49758 28.86738  91.70356 121.00930   0.00000 26.73197  16.70194  3.59240  4.62800
  575.0  5.71121 30.33125  70.89932 50.46707 29.47692 28.86911  91.77083 121.50297   0.00000 26.84102  11.40779  5.25956  4.89875
  575.2  5.51605 30.43544  70.74783 50.79090 29.49200 28.86619  91.68649 121.38035   0.00000 26.81393   8.69850  6.89774  4.79456
  575.4  5.31305 30.30269  70.44109 51.17421 29.49619 28.87081  91.60196 120.81738   0.00000 26.68957   9.71256  6.17757  4.92731
  575.6  5.11004 30.09537  70.40178 51.62020 29.50532 28.87359  91.61162 120.75584   0.00000 26.67598   9.24834  6.48765  5.13463
  575.8  4.91488 30.35599  70.67207 51.99911 29.51910 28.87487  91.83526 121.17058   0.00000 26.76760   9.33314  6.42870  4.87401
  576.0  4.71578 30.17972  70.78154 52.54583 29.51536 28.89433  91.68021 121.25941   0.00000 26.78722   9.35727  6.41213  5.05028
  576.2  4.51281 30.36660  70.54105 52.83204 29.55351 29.16321  91.60460 120.59839   0.00000 26.64119  10.26904  5.84281  4.86340
  576.4  4.31371 30.24685  70.23099 53.25451 29.56211 28.02581  91.57323 120.61523   0.00000 26.64491   9.20440  6.51863  4.98315
  576.6  4.11070 30.56166  70.15168 53.72432 29.58861 30.59996  91.77496 120.64663   0.00000 26.65185  12.34023  4.86215  4.66834
  576.8  3.91164 30.53408  71.11620 53.50876 29.59624 30.60011  91.80814 121.65079   0.00000 26.87368  14.86106  4.03740  4.69592
  577.0  3.71645 30.71972  71.03280 53.57732 29.59076 30.60057  91.66756 121.04445   0.00000 26.73973  16.82070  3.56703  4.51028
  577.2  3.51738 30.49895  70.75024 53.46643 29.57616 30.60184  91.48751 120.60418   0.00000 26.64247  17.56714  3.41547  4.73104
  577.4  3.31047 30.35797  70.27973 53.77477 29.59339 30.60211  91.59414 120.51387   0.00000 26.62252  11.89580  5.04380  4.87203
  577.6  3.11918 30.35027  70.26255 53.63682 29.59812 30.60150  91.47050 120.62836   0.00000 26.64782  10.71551  5.59936  4.87973
  577.8  2.91230 30.52470  71.33153 53.59494 29.60805 30.60192  91.54883 121.67146   0.00000 26.87824   7.45091  8.05270  4.70530
  578.0  2.71320 30.55841  70.80579 53.58126 29.61061 30.60388  91.41096 121.02291   0.00000 26.73497   7.72123  7.77078  4.67159
  578.2  2.51023 30.44952  70.10047 53.72492 29.63786 30.60411  91.00272 120.46017   0.00000 26.61066   6.49399  9.23931  4.78048
  578.4 11.74949 31.73246  70.92967 54.38580 29.66523 30.60428  89.17598 121.02355   0.00000 26.73512   4.28508 14.00206  3.49754
  578.6 11.55172 32.32091  73.89930 61.24492 29.23253 30.57987 100.82079 119.53478   0.00000 26.40623   6.92550  8.66363  2.90909
  578.8 11.34973 30.63906  72.99053 60.32331 29.18915 30.60416 100.00373 118.92407   0.00000 26.27132   6.28099  9.55263  4.59094
  579.0 11.15191 30.25522  72.64528 60.01432 29.12376 30.60342  99.77244 118.82661   0.00000 26.24979   8.72488  6.87688  4.97478
  579.2 10.94992 31.02887  73.11246 59.72664 29.07492 30.60731 100.25839 119.57061   0.00000 26.41415  14.54820  4.12422  4.20113
  579.4 10.75637 31.18996  72.79427 59.61580 29.05485 30.60374 100.22231 119.34255   0.00000 26.36377  20.81681  2.88229  4.04004
  579.6 10.55016 31.24203  72.57458 59.91601 29.04297 30.59395 100.09143 119.10238   0.00000 26.31071  17.82717  3.36565  3.98797
  579.8 10.35238 31.39844  72.30527 59.72723 29.02812 30.59319 100.04925 118.92287   0.00000 26.27106  16.15723  3.71351  3.83156
  580.0 10.15039 31.25853  72.04960 59.33267 29.02213 30.60142 100.01781 118.82572   0.00000 26.24960  19.03796  3.15160  3.97147
  580.2  9.95258 30.78497  71.81040 59.34541 29.01716 30.59916  99.79884 118.67978   0.00000 26.21736   8.84916  6.78030  4.44503
