~Version information
# This file generated by the LAST component (v1.3.0). Tver. R.E.A. 1999-2008
  VERS.                                             2.0 : CWLS LAS Version
  WRAP.                                              NO : Wrap mode
~Well information
  STRT.M                                             47 : Started at
  STOP.M                                         2016.4 : Stopped at
  STEP.M                                            0.2 : Step
  NULL.                                          -32768 : Null value
  COMP.                          ООО "Газпромгеоресурс" : Company
  WELL.                        Мест. Акшабулак Скв. 494 : Well
  FLD .                                       Акшабулак : Field
  CTRY.                                          Россия : Country
  SRVC.                                            ГЕРС : Service company
  DATE.                                      24.04.2024 : Date
~Curve information
  DEPTH.                                                : 
  S123456.м.                                            : Тальблок
  S200.т.                                               : Вес на крюке
  S300.атм.                                             : Давление нагн.
  S720.м3                                               : Сум.объем в емк
  S800.°С                                               : Темпер. на вх.
  S900.°С                                               : Темпер. на вых.
  S1200.мин-1                                           : Обороты рот.
  S50 .мин-1                                            : Ходы 1 нас.
  S51 .мин-1                                            : Ходы 2 нас.
  S1001.л/c                                             : Расх на вх.
  S106.м/ч                                              : Скорость бур.
  S107.мин/м                                            : ДМК
  S202.т.                                               : Нагрузка на дол
~Other information
~ASCII Log data
# ...
  828.4  8.41660 32.37159  90.96931 37.46315 36.18121 34.72674  89.33249 112.65377   0.00000 27.81394  77.41426  0.77505  2.81841
  828.6  8.21461 32.22888  91.05344 37.52246 36.18166 34.72499  89.24590 112.54958   0.00000 27.78822  65.09703  0.92170  2.96112
  828.8  8.01684 31.72943  90.91268 37.48385 36.18684 34.72003  89.04425 112.47800   0.00000 27.77055  84.55637  0.70959  3.46057
  829.0  7.81484 31.88596  90.48624 37.51564 36.17930 34.72160  89.26996 112.39377   0.00000 27.74975  48.86330  1.22792  3.30404
  829.2  7.61707 32.76770  90.44988 37.50599 36.18180 34.72987  89.19841 112.25751   0.00000 27.71611  77.36649  0.77553  2.42230
  829.4  7.41695 32.27259  90.37354 37.48722 36.18274 34.73268  89.02110 112.22891   0.00000 27.70905  74.92030  0.80085  2.91741
  829.6  7.21395 32.23473  90.13739 37.36434 36.18084 34.72831  88.96139 112.26685   0.00000 27.71841  68.99414  0.86964  2.95527
  829.8  7.01875 32.13444  90.34052 37.50104 36.18321 34.73491  88.99078 112.26059   0.00000 27.71687  66.18071  0.90661  3.05556
  830.0  6.81969 31.88694  90.43800 37.41716 36.18770 34.73779  88.90660 112.30109   0.00000 27.72687  69.00450  0.86951  3.30306
  830.2  6.62059 32.19508  90.03866 37.37195 36.19152 34.73442  88.94645 112.28510   0.00000 27.72292  63.95861  0.93811  2.99492
  830.4  6.42152 32.74121  90.14299 37.41782 36.19004 34.73858  89.01740 112.34641   0.00000 27.73806  67.71153  0.88611  2.44879
  830.6  6.21461 32.43682  89.91093 37.37488 36.19410 34.74973  88.99343 112.32378   0.00000 27.73247  65.37048  0.91785  2.75318
  830.8  6.01555 32.81032  90.07996 37.46473 36.19812 34.75260  89.01216 112.35353   0.00000 27.73981  70.24658  0.85413  2.37968
  831.0  5.81645 32.16895  90.01792 37.35520 36.19845 34.75280  88.81474 112.35974   0.00000 27.74135  60.05588  0.99907  3.02105
  831.2  5.61734 31.65415  90.48988 37.31042 36.20123 34.75103  88.66339 112.33014   0.00000 27.73404  54.30321  1.10491  3.53585
  831.4  5.41437 29.46834  90.23488 37.23508 36.20313 34.73907  88.37727 112.36292   0.00000 27.74213  33.52803  1.78955  5.72166
  831.6  5.21527 29.05840  90.54895 37.29864 36.20895 34.75808  88.51232 112.44573   0.00000 27.76258  16.28473  3.68443  6.13160
  831.8  5.01621 30.85960  91.34338 37.19445 36.21799 34.76012  89.19717 112.90223   0.00000 27.87529  20.88897  2.87233  4.33040
  832.0  4.81711 32.07287  91.13860 37.31938 36.22644 34.77449  89.20492 112.80569   0.00000 27.85145  40.36696  1.48636  3.11713
  832.2  4.61410 32.30909  90.78460 37.23583 36.23069 34.77169  89.19373 112.78064   0.00000 27.84527  37.20454  1.61271  2.88091
  832.4  4.41895 32.73612  90.70244 37.15012 36.23742 34.77253  89.24304 112.66711   0.00000 27.81724  40.97639  1.46426  2.45388
  832.6  4.21594 32.86105  90.64785 37.04217 36.24057 34.76813  89.01092 112.54745   0.00000 27.78769  58.76785  1.02097  2.32894
  832.8  4.02074 33.02385  90.72505 37.22347 36.24335 34.76848  89.03461 112.52434   0.00000 27.78199  66.49284  0.90235  2.16615
  833.0  3.81777 33.01141  90.49579 37.20396 36.24122 34.77189  88.80213 112.41712   0.00000 27.75552  42.49146  1.41205  2.17859
  833.2  3.61477 33.10527  90.20064 37.16430 36.25149 34.78199  88.35011 112.39461   0.00000 27.74996  53.20522  1.12771  2.08473
  833.4  3.42352 32.42139  90.67384 37.13679 36.25496 34.78885  88.02409 112.34603   0.00000 27.73796  52.17237  1.15003  2.76861
  833.6  3.21660 31.71319  90.61282 37.28868 36.25760 34.78809  87.75346 112.34190   0.00000 27.73694  55.11756  1.08858  3.47681
  833.8  3.01754 30.82454  90.45146 37.16236 36.26251 34.78141  87.57913 112.34044   0.00000 27.73658  62.07275  0.96661  4.36546
  834.0  2.81453 30.38552  90.44191 37.19386 36.26966 34.77760  87.68873 112.28306   0.00000 27.72241  50.35431  1.19156  4.80447
  834.2  2.62715 30.83488  90.07482 37.10799 36.27085 34.77507  87.70098 112.39149   0.00000 27.74919  62.46854  0.96048  4.35512
  834.4  2.42027 31.21253  89.90596 37.15444 36.27509 34.76282  87.71426 112.39529   0.00000 27.75013  61.14240  0.98132  3.97747
  834.6  2.21727 30.77888  89.99263 37.16192 36.27901 34.77160  87.61890 112.41185   0.00000 27.75421  62.09106  0.96632  4.41112
  834.8 11.50965 31.07322  90.58527 37.06786 36.28904 34.76674  76.42200 112.22413   0.00000 27.70787  19.90640  3.01411  4.14953
  835.0 11.31187 31.81031  89.17857 36.42359 36.31123 34.76104  77.94568 111.46994   0.00000 27.52166   6.13551  9.77914  3.35334
  835.2 11.10988 31.64197  87.89509 36.25510 36.32890 34.78962  86.64950 111.60107   0.00000 27.55403   7.02248  8.54399  3.27803
  835.4 10.91207 31.55434  87.70689 36.17277 36.35498 34.81171  86.66268 111.74899   0.00000 27.59056   7.22289  8.30692  3.36566
  835.6 10.71008 30.61060  87.25379 36.08588 36.37600 34.82162  86.14359 111.47040   0.00000 27.52177  11.83842  5.06824  4.30940
  835.8 10.51230 30.79846  86.70293 36.04413 36.39497 34.83367  86.33414 111.56609   0.00000 27.54540  10.11568  5.93139  4.12154
  836.0 10.31031 29.01940  87.15829 35.99725 36.41432 34.84290  86.17578 111.87661   0.00000 27.62206  13.16736  4.55672  5.90060
  836.2 10.11254 29.35162  87.52414 35.95391 36.43269 34.85528  86.57913 111.91991   0.00000 27.63276  12.11565  4.95227  5.56838
  836.4  9.91055 29.58461  86.76479 35.94076 36.45258 34.85218  86.40893 111.46238   0.00000 27.51979  12.80516  4.68561  5.33539
  836.6  9.71273 30.62424  86.38070 35.87469 36.47584 34.86677  86.48746 111.44727   0.00000 27.51606  10.85285  5.52850  4.29576
  836.8  9.51074 29.15023  86.36551 35.89576 36.49993 34.87289  86.27425 111.39767   0.00000 27.50382  14.18785  4.22897  5.76976
  837.0  9.31297 29.29020  87.18923 35.91514 36.52355 34.87503  86.84853 111.88755   0.00000 27.62477  11.31147  5.30435  5.62980
  837.2  9.11520 29.74804  86.60904 35.82768 36.54539 34.87426  86.97008 111.48449   0.00000 27.52525  13.77426  4.35595  5.17196
  837.4  8.91320 29.54180  86.61039 35.85722 36.56583 34.89015  86.65456 111.25108   0.00000 27.46762  11.98979  5.00426  5.37820
  837.6  8.71117 31.33246  86.69855 35.84890 36.58893 34.89655  86.86597 111.30773   0.00000 27.48161  11.39343  5.26619  3.58754
  837.8  8.51340 30.38254  86.14760 35.79222 36.60817 34.90015  86.73563 111.38879   0.00000 27.50162  12.89553  4.65278  4.53746
  838.0  8.31141 31.32535  87.29117 35.76501 36.62084 34.91037  87.44740 112.03453   0.00000 27.66105  15.14892  3.96068  3.59465
  838.2  8.11363 30.00917  86.60020 35.78294 36.63826 34.92012  86.97084 111.53371   0.00000 27.53741  16.11199  3.72394  4.91083
  838.4  7.91164 31.27606  86.59038 35.72750 36.65238 34.93182  83.37220 111.26307   0.00000 27.47058  18.64869  3.21739  3.64394
  838.6  7.71383 30.59536  86.69499 35.73966 36.66433 34.94293  79.92190 111.40025   0.00000 27.50445  15.34837  3.90921  4.32464
  838.8  7.51184 31.81025  87.25379 35.70976 36.68254 34.96513  80.13683 112.06308   0.00000 27.66810  12.90191  4.65047  3.10975
  839.0  7.31152 31.86009  87.00209 35.70644 36.70019 34.96393  80.12833 112.11882   0.00000 27.68187  18.53945  3.23634  3.05991
  839.2  7.11246 30.98073  88.48002 35.64395 36.71396 34.97593  80.27368 112.79007   0.00000 27.84760  19.57621  3.06495  3.93927
  839.4  6.91336 31.06597  88.73029 35.75085 36.72732 34.97029  80.10048 112.47837   0.00000 27.77064  19.95415  3.00689  3.85403
  839.6  6.71430 30.09346  88.32275 35.68942 36.73941 34.98009  79.82546 112.10696   0.00000 27.67894  22.84925  2.62591  4.82654
  839.8  6.51129 29.91048  87.91943 35.58702 36.75397 34.98236  79.69176 112.01981   0.00000 27.65742  20.02401  2.99640  5.00952
  840.0  6.31219 31.21290  87.82378 35.53985 36.77363 34.98131  79.93040 112.01762   0.00000 27.65688  13.39436  4.47950  3.70710
  840.2  6.11312 30.73918  87.96464 35.68865 36.79128 34.98067  79.71975 112.05910   0.00000 27.66712  19.63921  3.05511  4.18082
  840.4  5.91402 30.74530  87.82771 35.62815 36.80536 34.97963  79.84030 112.04665   0.00000 27.66405  19.97569  3.00365  4.17470
  840.6  5.71105 30.58057  88.59239 35.57745 36.81945 34.98427  80.02296 112.65751   0.00000 27.81487  17.39722  3.44883  4.33943
