~Version information
# This file generated by the LAST component (v1.3.0). Tver. R.E.A. 1999-2008
  VERS.                                             2.0 : CWLS LAS Version
  WRAP.                                              NO : Wrap mode
~Well information
  STRT.M                                             47 : Started at
  STOP.M                                         2016.4 : Stopped at
  STEP.M                                            0.2 : Step
  NULL.                                          -32768 : Null value
  COMP.                          ООО "Газпромгеоресурс" : Company
  WELL.                        Мест. Акшабулак Скв. 494 : Well
  FLD .                                       Акшабулак : Field
  CTRY.                                          Россия : Country
  SRVC.                                            ГЕРС : Service company
  DATE.                                      24.04.2024 : Date
~Curve information
  DEPTH.                                                : 
  S123456.м.                                            : Тальблок
  S200.т.                                               : Вес на крюке
  S300.атм.                                             : Давление нагн.
  S720.м3                                               : Сум.объем в емк
  S800.°С                                               : Темпер. на вх.
  S900.°С                                               : Темпер. на вых.
  S1200.мин-1                                           : Обороты рот.
  S50 .мин-1                                            : Ходы 1 нас.
  S51 .мин-1                                            : Ходы 2 нас.
  S1001.л/c                                             : Расх на вх.
  S106.м/ч                                              : Скорость бур.
  S107.мин/м                                            : ДМК
  S202.т.                                               : Нагрузка на дол
~Other information
~ASCII Log data
# ...
 1870.0  2.83016 44.20100 107.92166 50.32585 42.99725 44.35834   0.00000   0.00000 103.86024 25.64284  14.20627  4.22349 13.67400
 1870.2  2.63105 43.41610 117.36297 50.46928 43.05962 44.36368   0.00000   0.00000 102.95473 25.41928  10.55106  5.68663 14.45890
 1870.4  2.43195 43.88134 113.43451 50.43741 43.14498 44.42899   0.00000   0.00000 103.37891 25.52400   6.02330  9.96132 13.99366
 1870.6  2.23289 44.42198 114.63028 50.44707 43.21375 44.55746   0.00000   0.00000 103.28011 25.49961  11.30553  5.30714 13.45302
 1870.8 11.56016 46.84678 112.40606 51.65596 43.28377 44.50522   6.86093   0.00000 104.17776 25.72124   8.51129  7.04946 11.02823
 1871.0 11.35816 56.03340 120.46144 57.68929 43.39785 43.84314  38.59164   0.00000 106.73637 26.35295  13.15995  4.55929  1.84160
 1871.2 11.16039 56.05622 119.34175 57.86723 43.40326 43.83151  38.50642   0.00000 106.87061 26.38610  10.85385  5.52799  1.81878
 1871.4 10.95840 55.57467 120.29998 58.15136 43.41945 43.88111  38.39948   0.00000 106.83904 26.37830   7.08203  8.47214  2.30033
 1871.6 10.76059 56.26549 119.33930 58.39192 43.44918 43.85026  38.48982   0.00000 106.97132 26.41096   8.05387  7.44983  1.60951
 1871.8 10.55859 56.41081 119.01022 58.58883 43.47841 43.92142  38.53965   0.00000 106.97978 26.41305  12.03423  4.98578  1.46419
 1872.0 10.36082 55.96828 119.92350 58.83080 43.51695 43.98264  38.40720   0.00000 106.84420 26.37958   6.00651  9.98917  1.90672
 1872.2 10.15883 55.27940 123.75835 59.02572 43.55822 44.13738  38.37388   0.00000 106.38775 26.26688  11.84539  5.06526  2.59561
 1872.4  9.96523 55.75024 120.95122 59.15552 43.59967 44.13256  38.33659   0.00000 106.69009 26.34153   6.57992  9.11866  2.12477
 1872.6  9.75902 55.54020 121.02007 59.38617 43.65499 44.07738  38.41283   0.00000 106.65912 26.33388   8.51702  7.04472  2.33480
 1872.8  9.56125 56.26864 118.39612 59.49937 43.69383 44.08783  38.48085   0.00000 106.92551 26.39965  12.01760  4.99268  1.60636
 1873.0  9.35926 56.39784 117.45409 59.68684 43.73119 44.15572  38.37245   0.00000 107.02158 26.42337   8.74791  6.85878  1.47716
 1873.2  9.16148 55.98804 119.69733 59.90990 43.77698 44.26109  38.33766   0.00000 106.77456 26.36238  10.56019  5.68172  1.88696
 1873.4  8.95949 55.74436 120.81409 60.10976 43.81685 44.28511  38.43669   0.00000 106.60444 26.32038  13.16919  4.55609  2.13064
 1873.6  8.76168 55.63495 120.27702 60.18774 43.85337 44.32265  38.54808   0.00000 106.72910 26.35116  11.48619  5.22366  2.24005
 1873.8  8.55969 55.27923 121.04612 60.44777 43.89555 44.36506  38.52145   0.00000 106.57159 26.31227  11.57690  5.18274  2.59577
 1874.0  8.36191 54.64476 123.34964 60.71123 43.93181 44.39339  38.54336   0.00000 106.36400 26.26101  14.90373  4.02584  3.23024
 1874.2  8.15992 55.13434 121.39273 61.01982 43.96822 44.48727  38.86718   0.00000 106.62435 26.32529  10.75912  5.57666  2.74066
 1874.4  7.96211 55.99698 118.82127 61.33274 44.01854 44.64751  39.72077   0.00000 106.93509 26.40202   9.01157  6.65811  1.87802
 1874.6  7.76012 55.33358 120.81408 61.63251 44.06047 44.68263  39.65431   0.00000 106.71677 26.34811  17.73544  3.38306  2.54143
 1874.8  7.56656 55.51560 116.67679 62.37572 44.16757 44.66612  29.45302   0.00000 106.14545 26.20706  13.16696  4.55686  2.35940
 1875.0  7.35840 49.55514 102.50865 67.67471 44.80066 44.91391   0.00000   0.00000  99.34360 24.52769  29.04928  2.06546  8.31986
 1875.2  7.15930 47.34317 103.92037 67.59251 44.86937 44.88300   0.00000   0.00000  99.16691 24.48407  10.92620  5.49139 10.53183
 1875.4  6.96020 47.63792 108.80713 67.39915 44.96030 44.92370   0.00000   0.00000  98.77319 24.38686  28.76980  2.08552 10.23708
 1875.6  6.76113 46.58990 107.94049 67.56544 44.96822 44.93514   0.00000   0.00000  98.79648 24.39261  27.15160  2.20981 11.28510
 1875.8  6.55813 48.60046 113.64289 67.41685 45.07243 44.97800   0.00000   0.00000 100.15647 24.72839  19.39692  3.09327  9.27454
 1876.0  6.35906 48.07294 122.35715 67.45920 45.13045 45.04478  20.00000   0.00000 100.14373 24.72524  16.39243  3.66023  9.80206
 1876.2  6.15996 48.15882 113.81697 67.54126 45.27298 45.00882   0.00000   0.00000 100.98502 24.93296   7.89676  7.59805  9.71618
 1876.4  5.96086 46.07777 107.82121 67.72534 45.36575 45.00206   0.00000   0.00000 101.58472 25.08102   7.69109  7.80124 11.79723
 1876.6  5.76180 45.14460 114.90820 67.85583 45.40398 45.02361   0.00000   0.00000 100.84626 24.89870  13.27311  4.52042 12.73040
 1876.8  5.55879 46.79245 112.74860 67.70742 45.42642 45.06266   0.00000   0.00000 101.40118 25.03571  11.23700  5.33950 11.08256
 1877.0  5.35973 45.73693 114.08601 67.60258 45.47421 45.17318   0.44203   0.00000 101.06842 24.95355  10.35823  5.79250 12.13806
 1877.2  5.16062 46.81459 112.53560 67.56454 45.53314 45.25737   0.00000   0.00000 101.43671 25.04448  18.20365  3.29604 11.06041
 1877.4  4.96152 43.96299 106.87853 67.39288 45.61316 45.19321   0.00000   0.00000 101.73838 25.11896   6.72340  8.92406 13.91200
 1877.6  4.75855 45.07275 110.18951 67.04647 45.69425 45.05250   0.00000   0.00000 101.51914 25.06483  19.85352  3.02213 12.80225
 1877.8  4.55945 45.49754 108.63975 66.97412 45.72757 45.21592   1.21275   0.00000 101.40797 25.03738   4.96580 12.08266 12.40227
 1878.0  4.37598 45.72872 109.39303 66.90337 45.78902 45.21387   0.49619   0.00000 101.51772 25.06448   9.51071  6.30868 12.17230
 1878.2  4.16129 47.01774 109.23413 66.76060 45.89680 45.29710   0.83351   0.00000 101.37033 25.02809   6.11628  9.80988 10.85726
 1878.4  3.95828 45.68471 115.81882 66.75431 45.91462 45.39178   0.00000   0.00000 100.74418 24.87350  17.14446  3.49967 12.19029
 1878.6  3.75922 45.05696 113.27626 66.47704 45.92023 45.35619   0.00000   0.00000 101.03645 24.94565   7.84678  7.64645 12.81804
 1878.8  3.56012 45.19195 112.71619 66.38119 45.92238 45.43427   0.35213   0.00000 100.97019 24.92930   8.72009  6.88066 12.68305
 1879.0  3.36105 47.32444 116.16401 66.45580 45.92225 45.47235   0.36919   0.00000 100.79885 24.88699  18.28485  3.28140 10.55056
 1879.2  3.15805 45.96510 109.25082 66.47050 45.91866 45.43509   0.00000   0.00000 101.54880 25.07215  16.15865  3.71318 11.90990
 1879.4  2.96285 46.10233 119.69054 66.38495 45.92512 45.44910   0.00000   0.00000 100.57124 24.83080  30.12053  1.99200 11.77267
 1879.6  2.75988 46.79201 119.98629 66.40786 45.92877 45.45348   0.00000   0.00000 100.18000 24.73420  31.71171  1.89205 11.08299
 1879.8  2.56078 46.23146 109.41848 66.42372 45.95697 45.44436   6.42523   0.00000 101.32056 25.01580   7.71967  7.77235 11.64353
 1880.0  2.36172 54.85033 117.82970 66.28070 46.01947 45.23269  36.87424   0.00000 100.70232 24.86316  21.00417  2.85658  3.02467
 1880.2  2.15871 55.51268 115.14532 66.31828 46.01554 45.27815  36.92722   0.00000 100.68581 24.85908  16.90713  3.54880  2.36232
 1880.4 11.49309 56.85016 115.10000 44.13935 38.85830 32.22670  21.80130  57.22887   0.00000 14.12967  17.00934  3.52747  3.67312
 1880.6 11.29531 56.02625 104.62007 42.97467 38.80819 39.86649  37.09758  97.42446   0.00000 24.05386  17.37448  3.45334  3.46375
 1880.8 11.09332 56.10740 105.70205 42.93156 38.84172 39.96332  37.15295  97.43636   0.00000 24.05680  25.61078  2.34276  3.38260
 1881.0 10.89551 55.83333 107.00988 42.90139 38.87001 40.10026  37.08563  97.09663   0.00000 23.97292  21.06442  2.84841  3.65667
 1881.2 10.69352 55.88073 107.12974 42.93052 38.90429 40.17727  37.02654  96.85538   0.00000 23.91336  24.55510  2.44348  3.60927
 1881.4 10.49574 55.95629 105.17018 42.93745 38.92945 40.21514  37.05541  97.04200   0.00000 23.95944  28.70968  2.08989  3.53371
 1881.6 10.29375 56.46004 102.12569 42.89120 38.97179 40.13552  37.03362  97.28123   0.00000 24.01850  14.72287  4.07529  3.02995
 1881.8 10.09598 56.16002 103.63747 42.88004 39.01427 40.23927  36.98368  97.18201   0.00000 23.99400  25.08464  2.39190  3.32998
 1882.0  9.89398 55.03254 106.74342 42.82479 39.05338 40.28515  36.98082  97.28145   0.00000 24.01855  23.92893  2.50743  4.45746
 1882.2  9.69617 54.70686 108.76087 42.78260 39.09312 40.23087  36.99283  97.42751   0.00000 24.05462  25.05924  2.39433  4.78315
