~Version information
# This file generated by the LAST component (v1.3.0). Tver. R.E.A. 1999-2008
  VERS.                                             2.0 : CWLS LAS Version
  WRAP.                                              NO : Wrap mode
~Well information
  STRT.M                                             47 : Started at
  STOP.M                                         2016.4 : Stopped at
  STEP.M                                            0.2 : Step
  NULL.                                          -32768 : Null value
  COMP.                          ООО "Газпромгеоресурс" : Company
  WELL.                        Мест. Акшабулак Скв. 494 : Well
  FLD .                                       Акшабулак : Field
  CTRY.                                          Россия : Country
  SRVC.                                            ГЕРС : Service company
  DATE.                                      24.04.2024 : Date
~Curve information
  DEPTH.                                                : 
  S123456.м.                                            : Тальблок
  S200.т.                                               : Вес на крюке
  S300.атм.                                             : Давление нагн.
  S720.м3                                               : Сум.объем в емк
  S800.°С                                               : Темпер. на вх.
  S900.°С                                               : Темпер. на вых.
  S1200.мин-1                                           : Обороты рот.
  S50 .мин-1                                            : Ходы 1 нас.
  S51 .мин-1                                            : Ходы 2 нас.
  S1001.л/c                                             : Расх на вх.
  S106.м/ч                                              : Скорость бур.
  S107.мин/м                                            : ДМК
  S202.т.                                               : Нагрузка на дол
~Other information
~ASCII Log data
# ...
  704.4 10.32293 35.73000  71.15903 44.50819 33.10792 33.69659 100.40978 115.33026   0.00000 28.47476   4.73521 12.67104  2.10000
  704.6 10.12094 35.62669  71.47571 44.46030 33.11871 33.69928 100.37492 115.59885   0.00000 28.54108   5.23106 11.46996  2.20331
  704.8  9.92312 35.63881  71.31261 44.45667 33.13361 33.71228 100.37970 115.40622   0.00000 28.49352   3.64459 16.46278  2.19120
  705.0  9.72113 35.91291  71.54321 44.45618 33.15169 33.70214 100.36586 115.60925   0.00000 28.54364   4.85533 12.35755  1.91709
  705.2  9.52336 36.09391  71.43018 44.40640 33.17299 33.70226 100.46857 115.42519   0.00000 28.49820   3.59567 16.68673  1.73609
  705.4  9.32137 35.83420  71.31045 44.38442 33.19254 33.71592 100.17776 115.37504   0.00000 28.48582   7.37637  8.13409  1.99580
  705.6  9.12359 36.00579  71.99754 44.40451 33.20155 33.70565 100.51299 116.04527   0.00000 28.65129  15.27811  3.92719  1.82421
  705.8  8.92160 35.77768  71.37308 44.34027 33.21302 33.72005 100.39201 115.47014   0.00000 28.50930   6.04071  9.93261  2.05232
  706.0  8.72379 35.95643  71.04403 44.34501 33.22604 33.71578 100.17702 115.22550   0.00000 28.44890  11.94895  5.02136  1.87357
  706.2  8.52180 35.63399  71.00056 44.30188 33.23336 33.73498 100.05685 115.20668   0.00000 28.44425   9.93340  6.04023  2.19601
  706.4  8.32402 35.87422  71.68730 44.32317 33.24355 33.72333 100.38387 115.73538   0.00000 28.57479   8.31883  7.21255  1.95578
  706.6  8.12203 35.84368  71.59161 44.34400 33.25348 33.72655 100.34502 115.56260   0.00000 28.53213  14.19640  4.22642  1.98632
  706.8  7.92426 35.90993  71.09357 44.32303 33.26532 33.72705 100.28835 115.12344   0.00000 28.42370   7.16533  8.37365  1.92007
  707.0  7.72223 35.88677  70.94331 44.32743 33.27633 33.72738 100.07091 115.07555   0.00000 28.41187  15.54016  3.86096  1.94323
  707.2  7.52023 35.81785  70.92757 44.33380 33.27947 33.73901 100.01663 115.08371   0.00000 28.41389  12.24135  4.90142  2.01215
  707.4  7.32324 36.04279  71.53223 44.31751 33.28708 33.72863 100.25496 115.61942   0.00000 28.54616  12.00303  4.99874  1.78721
  707.6  7.12023 35.98111  71.68694 44.30149 33.29493 33.72611 100.39272 115.73455   0.00000 28.57458  11.90284  5.04081  1.84889
  707.8  6.92117 35.79882  71.32275 44.25379 33.30232 33.75022 100.23818 115.31346   0.00000 28.47062  12.35858  4.85493  2.03117
  708.0  6.72207 36.12897  70.98799 44.25924 33.30922 33.75055 100.18732 115.04409   0.00000 28.40411  10.23984  5.85946  1.70103
  708.2  6.52301 36.17938  70.90758 44.25514 33.31728 33.74893 100.13197 115.06953   0.00000 28.41039   8.97939  6.68197  1.65062
  708.4  6.32391 36.22858  71.36397 44.19859 33.32540 33.74105 100.20036 115.51395   0.00000 28.52011  11.45453  5.23810  1.60142
  708.6  6.12090 35.72340  71.83743 44.19863 33.33198 33.75221 100.27056 115.70457   0.00000 28.56718  10.38826  5.77575  2.10660
  708.8  5.92184 35.70118  71.41254 44.12846 33.33844 33.76484 100.15216 115.25336   0.00000 28.45577  13.09767  4.58097  2.12883
  709.0  5.72273 35.91728  71.10450 44.13302 33.34581 33.75507  99.95945 115.03371   0.00000 28.40154  15.24528  3.93564  1.91272
  709.2  5.52367 35.56501  71.04205 44.15138 33.35162 33.75152  99.93491 115.02455   0.00000 28.39928  13.18004  4.55234  2.26499
  709.4  5.32066 35.86151  71.02721 44.11053 33.35673 33.75987  99.98413 115.04052   0.00000 28.40322  11.03678  5.43637  1.96849
  709.6  5.12156 35.47491  71.75396 44.08043 33.36282 33.75651 100.00436 115.65040   0.00000 28.55380  16.76286  3.57934  2.35509
  709.8  4.92250 35.08142  72.28739 44.09874 33.36898 33.75662 100.03725 115.94180   0.00000 28.62575  22.40524  2.67794  2.74858
  710.0  4.72340 35.39716  71.97664 44.03625 33.37090 33.75845 100.09755 115.60468   0.00000 28.54251  17.73322  3.38348  2.43284
  710.2  4.52043 35.90977  71.56731 44.12067 33.37642 33.75657 100.11487 115.29507   0.00000 28.46607  11.30981  5.30513  1.92023
  710.4  4.32523 36.00208  71.28568 44.08598 33.38260 33.76677  99.94054 115.06296   0.00000 28.40877  16.21639  3.69996  1.82792
  710.6  4.12223 36.13555  71.26729 44.01277 33.38869 33.76434  99.94354 115.02560   0.00000 28.39954  10.50856  5.70963  1.69445
  710.8  3.92316 35.63067  71.25007 44.00119 33.39501 33.76149  99.87485 115.04549   0.00000 28.40445  17.83829  3.36355  2.19933
  711.0  3.72406 35.34278  72.12283 44.00173 33.40013 33.76138 100.03703 115.73998   0.00000 28.57592  10.82717  5.54161  2.48722
  711.2  3.52109 35.57386  71.80782 43.96503 33.41247 33.77112 100.18340 115.32436   0.00000 28.47330   4.92477 12.18332  2.25614
  711.4  3.32199 34.67714  71.31412 43.96510 33.42326 33.76339  99.79729 115.00307   0.00000 28.39398  10.97363  5.46766  3.15287
  711.6  3.12289 34.91483  71.25644 43.95805 33.42657 33.77132  99.47741 115.00576   0.00000 28.39464  32.91098  1.82310  2.91517
  711.8  2.92383 34.34153  71.36082 43.94115 33.43195 33.77491  99.35188 115.02070   0.00000 28.39833  32.62693  1.83897  3.48847
  712.0  2.72473 34.72579  71.28613 43.98508 33.43208 33.77367  99.41978 115.00994   0.00000 28.39568  28.10742  2.13467  3.10421
  712.2  2.52176 34.44688  72.29010 43.98001 33.43598 33.77291  99.68737 115.87068   0.00000 28.60819  17.39891  3.44849  3.38312
  712.4  2.32266 35.08983  71.74730 43.92544 33.44804 33.78355  99.96942 115.39773   0.00000 28.49142   3.60973 16.62175  2.74017
  712.6 11.79582 34.56567  71.73462 43.86612 33.46692 33.79832  97.10011 115.38649   0.00000 28.48865   3.84524 15.60373  3.26624
  712.8 11.59801 35.32495  67.28683 43.85466 33.47371 33.76148  91.02415 111.79910   0.00000 27.60293   4.63059 12.95731  2.70505
  713.0 11.39602 35.99495  69.04436 43.55000 33.47731 33.77663  94.90327 113.26418   0.00000 27.96465   6.84732  8.76255  2.03505
  713.2 11.19824 36.31813  70.66068 43.41423 33.48206 33.78206  94.83582 114.41819   0.00000 28.24957  10.40320  5.76746  1.71187
  713.4 10.99625 36.48228  70.68645 43.29264 33.48398 33.79128  94.84270 114.43655   0.00000 28.25411   6.85946  8.74705  1.54772
  713.6 10.79426 36.42046  71.24895 43.26769 33.48512 33.78482  94.93151 114.86166   0.00000 28.35907  10.44649  5.74356  1.60954
  713.8 10.59645 36.17007  70.82633 43.28754 33.48991 33.78831  94.72491 114.37460   0.00000 28.23881  10.79432  5.55848  1.85993
  714.0 10.39867 36.16678  70.69785 43.24369 33.49099 33.79643  94.67176 114.34458   0.00000 28.23140   8.65566  6.93188  1.86322
  714.2 10.19668 36.24057  70.71137 43.23389 33.49422 33.81142  94.60860 114.35224   0.00000 28.23329   8.47693  7.07804  1.78943
  714.4  9.99469 36.18024  71.12511 43.25218 33.49643 33.80980  94.66026 114.67329   0.00000 28.31256   9.34332  6.42170  1.84976
  714.6  9.79691 35.40752  71.24675 43.14481 33.49922 33.80027  94.44208 114.60244   0.00000 28.29506  16.48458  3.63977  2.62247
  714.8  9.59492 36.03993  70.89272 43.14305 33.49958 33.81903  94.63118 114.32563   0.00000 28.22672   8.89157  6.74796  1.99007
  715.0  9.39711 35.86713  70.86945 43.09680 33.50152 33.81022  94.46577 114.33340   0.00000 28.22864  10.65458  5.63138  2.16287
  715.2  9.19512 35.64773  70.86452 43.13068 33.50318 33.81393  94.36784 114.36754   0.00000 28.23707  11.80712  5.08168  2.38227
  715.4  8.99734 35.65792  71.20954 43.08311 33.50607 33.81536  94.46590 114.62741   0.00000 28.30123  12.23073  4.90568  2.37208
  715.6  8.79535 35.84021  71.54565 43.07471 33.50775 33.82927  94.59950 114.80171   0.00000 28.34426  12.89827  4.65179  2.18979
  715.8  8.59754 36.27708  71.02825 43.06644 33.51084 33.83201  94.65908 114.35151   0.00000 28.23311  10.88790  5.51071  1.75292
  716.0  8.39555 36.32658  70.94671 43.08060 33.51475 33.82179  94.58439 114.32343   0.00000 28.22618  12.93935  4.63702  1.70342
  716.2  8.19777 36.30197  70.97468 43.05723 33.51692 33.82975  94.47629 114.32175   0.00000 28.22576  12.36386  4.85285  1.72803
  716.4  7.99578 36.19662  71.00857 43.00447 33.51964 33.82328  94.46379 114.36699   0.00000 28.23693  11.72778  5.11606  1.83338
  716.6  7.79801 36.13503  71.67796 43.00166 33.52471 33.84198  94.58165 114.94175   0.00000 28.37884  13.69277  4.38187  1.89498
