~Version information
# This file generated by the LAST component (v1.3.0). Tver. R.E.A. 1999-2008
  VERS.                                             2.0 : CWLS LAS Version
  WRAP.                                              NO : Wrap mode
~Well information
  STRT.M                                             47 : Started at
  STOP.M                                         2016.4 : Stopped at
  STEP.M                                            0.2 : Step
  NULL.                                          -32768 : Null value
  COMP.                          ООО "Газпромгеоресурс" : Company
  WELL.                        Мест. Акшабулак Скв. 494 : Well
  FLD .                                       Акшабулак : Field
  CTRY.                                          Россия : Country
  SRVC.                                            ГЕРС : Service company
  DATE.                                      24.04.2024 : Date
~Curve information
  DEPTH.                                                : 
  S123456.м.                                            : Тальблок
  S200.т.                                               : Вес на крюке
  S300.атм.                                             : Давление нагн.
  S720.м3                                               : Сум.объем в емк
  S800.°С                                               : Темпер. на вх.
  S900.°С                                               : Темпер. на вых.
  S1200.мин-1                                           : Обороты рот.
  S50 .мин-1                                            : Ходы 1 нас.
  S51 .мин-1                                            : Ходы 2 нас.
  S1001.л/c                                             : Расх на вх.
  S106.м/ч                                              : Скорость бур.
  S107.мин/м                                            : ДМК
  S202.т.                                               : Нагрузка на дол
~Other information
~ASCII Log data
# ...
 1088.8  4.68828 41.48729  99.22815 41.92821 37.97620 36.30377  64.28828   0.00000 111.65563 27.56750   6.25834  9.58720  2.51271
 1089.0  4.49312 42.52659  84.43175 46.02344 37.90967 36.18169  63.01265 103.19806   0.00000 25.47935   8.66247  6.92643  1.81837
 1089.2  4.29012 39.62169 101.56698 46.72190 37.91366 36.20623  61.73703 113.57784   0.00000 28.04210  24.36279  2.46277  4.37831
 1089.4  4.09105 39.63742 101.01826 46.74542 37.91443 36.20362  60.62635 113.12868   0.00000 27.93120  17.39722  3.44883  4.36258
 1089.6  3.89586 39.29597 100.46766 46.88940 37.91488 36.20894  60.69074 112.77978   0.00000 27.84505  14.50076  4.13771  4.70403
 1089.8  3.69285 39.43270  99.85258 47.11110 37.91160 36.21820  60.60283 112.13117   0.00000 27.68492  17.06543  3.51588  4.56730
 1090.0  3.48988 37.86365  97.72074 47.31731 37.90532 36.22645  58.99442 111.04962   0.00000 27.41788   9.16296  6.54810  6.13635
 1090.2  3.29469 38.96062  98.69506 47.83354 37.90137 36.24346  58.83782 111.99599   0.00000 27.65154   9.55231  6.28120  5.03938
 1090.4  3.09172 38.24659 100.77317 48.00348 37.89334 36.25276  58.82616 113.31367   0.00000 27.97687  12.02638  4.98903  5.75341
 1090.6  2.89262 38.98252 101.10672 48.33902 37.88903 36.24691  58.73240 113.31490   0.00000 27.97717  10.82717  5.54161  5.01748
 1090.8  2.69352 38.84682 101.07800 49.30237 37.88474 36.26413  58.67935 113.18468   0.00000 27.94502  13.94730  4.30191  5.15317
 1091.0  2.49055 40.50960 101.50568 50.26572 37.88212 36.25360  58.84228 113.63096   0.00000 28.05521  16.66972  3.59934  3.49040
 1091.2  2.29145 40.57292 101.17484 51.22908 37.87622 36.23167  58.79105 113.22218   0.00000 27.95428  15.99884  3.75027  3.42708
 1091.4  2.09238 41.14429 101.06280 52.19243 37.87534 36.23286  58.79913 113.04007   0.00000 27.90932  15.68330  3.82572  2.85571
 1091.6 11.34973 42.18612 100.18416 53.15578 37.86165 36.22733  54.81916 112.65217   0.00000 27.81355   6.39450  9.38307  1.76388
 1091.8 11.15195 40.16765  97.79697 54.11914 37.83166 36.23043  67.61333 111.07612   0.00000 27.42443  28.08941  2.13604  3.63235
 1092.0 10.94996 40.44232  97.79061 55.08250 37.83848 36.21023  67.56408 111.05559   0.00000 27.41936  21.64439  2.77208  3.35768
 1092.2 10.75219 40.71140  97.84008 56.07781 37.84314 36.22220  67.51663 111.04298   0.00000 27.41624  23.43422  2.56036  3.08860
 1092.4 10.55016 41.15252  97.92520 56.06835 37.85458 36.24249  67.52422 111.07460   0.00000 27.42405  23.00321  2.60833  2.64749
 1092.6 10.34816 41.64336  98.34006 56.07832 37.85814 36.24133  68.07798 111.58911   0.00000 27.55108  19.85870  3.02135  2.15664
 1092.8 10.15039 40.27142  98.25337 56.11127 37.86155 36.24729  69.40020 111.41492   0.00000 27.50807  26.18349  2.29152  3.52858
 1093.0  9.94840 41.90373  97.66803 56.11089 37.86831 36.15647  69.33794 111.11674   0.00000 27.43445  22.17565  2.70567  1.89627
 1093.2  9.75062 40.51297  97.33051 56.85497 37.87090 36.21091  69.36412 111.13471   0.00000 27.43889  33.03888  1.81604  3.28703
 1093.4  9.54863 37.83986  97.13432 56.11618 37.87471 36.24823  68.52647 111.09355   0.00000 27.42873  27.19010  2.20669  5.96014
 1093.6  9.35082 37.63142  97.23023 56.22720 37.88589 36.23970  69.26303 111.27840   0.00000 27.47437   3.94209 15.22035  6.16858
 1093.8  9.15305 38.51313  96.72140 56.26839 37.90099 36.26006  69.66863 111.10670   0.00000 27.43197   4.44573 13.49609  5.28687
 1094.0  8.95105 38.69498  96.97252 56.31895 37.90973 36.20560  69.77613 111.19583   0.00000 27.45398   4.51170 13.29877  5.10501
 1094.2  8.74906 39.17082  96.57388 56.36316 37.91677 36.27947  69.79634 111.07230   0.00000 27.42348   5.20510 11.52716  4.62918
 1094.4  8.55125 39.26870  96.79782 56.45832 37.92696 36.25151  69.94986 111.22205   0.00000 27.46045   5.18861 11.56378  4.53129
 1094.6  8.35348 39.10735  96.31078 56.51998 37.94049 36.28527  69.89478 111.17725   0.00000 27.44939   4.79136 12.52254  4.69265
 1094.8  8.15148 39.00248  96.25859 56.46068 37.95738 36.27485  69.77365 111.10267   0.00000 27.43098   5.65977 10.60114  4.79752
 1095.0  7.94949 38.72809  95.96298 56.28954 37.97715 36.31508  69.72597 111.19282   0.00000 27.45324   5.18774 11.56573  5.07191
 1095.2  7.75172 38.98180  95.78334 56.23932 38.00210 36.31717  69.80830 111.07667   0.00000 27.42456   4.86297 12.33815  4.81820
 1095.4  7.54973 39.02219  95.61978 56.34832 38.02606 36.35643  69.90918 111.28936   0.00000 27.47707   5.52681 10.85617  4.77781
 1095.6  7.35059 38.79767  94.67341 56.56482 38.05107 36.35156  69.83242 111.17606   0.00000 27.44910   5.04147 11.90128  5.00233
 1095.8  7.15148 38.83957  94.25490 56.61546 38.08097 36.33378  69.67761 111.41681   0.00000 27.50854   4.58015 13.10000  4.96043
 1096.0  6.94848 38.83769  93.47585 56.62392 38.11061 36.38860  66.18154 111.21292   0.00000 27.45820   4.84936 12.37276  4.96231
 1096.2  6.74941 38.52768  93.59277 56.61338 38.14169 36.39197  66.94709 111.43587   0.00000 27.51325   4.28938 13.98805  5.27232
 1096.4  6.55031 38.82219  93.42834 56.53822 38.17200 36.30829  70.27264 111.43327   0.00000 27.51260   3.97321 15.10112  4.97781
 1096.6  6.35516 39.90002  92.96110 56.53999 38.20597 36.33979  70.46580 111.29803   0.00000 27.47921   2.99590 20.02740  3.89998
 1096.8  6.14824 39.46997  91.98826 56.43489 38.23648 36.36590  70.39120 111.31915   0.00000 27.48443   4.58215 13.09430  4.33003
 1097.0  5.94914 37.99693  92.13387 56.40100 38.25660 36.36186  70.21520 111.51977   0.00000 27.53396   5.19067 11.55919  5.80307
 1097.2  5.75008 38.68790  95.22163 56.38375 38.27707 36.40377  70.19404 113.36395   0.00000 27.98928   4.41353 13.59457  5.11210
 1097.4  5.55098 38.88385  97.27702 56.38506 38.29777 36.42959  70.31528 113.44487   0.00000 28.00926   4.73350 12.67560  4.91615
 1097.6  5.34801 39.12794  97.92398 56.98962 38.31495 36.42450  70.28677 113.24276   0.00000 27.95936   5.24262 11.44466  4.67206
 1097.8  5.14891 39.32422  98.26405 57.62611 38.32782 36.44729  70.38191 113.27281   0.00000 27.96678   6.98072  8.59511  4.47578
 1098.0  4.94980 39.39013  98.28355 58.00653 38.34001 36.47886  70.40337 113.12446   0.00000 27.93016  14.06360  4.26633  4.40987
 1098.2  4.75074 39.32957  98.06641 58.29509 38.34297 36.47027  70.46256 113.26774   0.00000 27.96553  15.71885  3.81707  4.47043
 1098.4  4.55164 39.59683  97.64394 58.46996 38.34795 36.39495  70.46421 113.32323   0.00000 27.97923  17.38655  3.45094  4.20317
 1098.6  4.34867 39.52233  97.97955 58.84044 38.35456 36.43642  70.52808 113.77757   0.00000 28.09141  13.29642  4.51249  4.27767
 1098.8  4.14957 39.85643  97.49297 59.09719 38.36179 36.38622  70.55148 113.28005   0.00000 27.96857  11.22723  5.34415  3.94357
 1099.0  3.95047 39.30539  97.57139 59.14803 38.36819 36.37004  70.46084 113.18647   0.00000 27.94547  16.02725  3.74362  4.49461
 1099.2  3.75141 39.37100  97.30878 59.19818 38.37209 36.37927  70.53427 113.26549   0.00000 27.96497  18.01943  3.32974  4.42900
 1099.4  3.54840 39.62931  97.47871 59.19132 38.37783 36.36858  70.50486 113.42618   0.00000 28.00465  19.85898  3.02130  4.17069
 1099.6  3.34934 39.56979  97.58997 59.01841 38.38459 36.37735  70.57749 113.76668   0.00000 28.08872  16.16838  3.71095  4.23021
 1099.8  3.15023 42.34830  97.75791 58.75164 38.18482 36.39591  51.79670 113.43629   0.00000 28.00714   3.67954 16.30640  1.45170
 1100.0  9.49391 44.17415  85.72803 56.06663 35.93817 35.46193  23.46611 110.72298   0.00000 27.33724   9.72083  6.17231  1.16096
 1100.2  9.29613 46.26912  75.60188 53.46852 33.70871 34.51729   0.00000 107.46044   0.00000 26.53172   8.60361  6.97381  0.65088
 1100.4  9.09414 46.19152  76.59964 53.47965 33.68629 34.57755   0.00000 107.36993   0.00000 26.50938  13.36254  4.49016  0.72848
 1100.6  8.89633 46.06797  77.66991 53.37157 33.67220 34.62137   0.00000 107.49339   0.00000 26.53986  15.61181  3.84324  0.85203
 1100.8  8.69855 46.03902  78.56249 53.17646 33.66836 34.61768   0.00000 107.83498   0.00000 26.62420  20.54564  2.92033  0.88098
 1101.0  8.49656 46.24996  77.15193 53.07920 33.67971 34.61003   0.00000 107.33425   0.00000 26.50057  10.07459  5.95558  0.67004
