~Version information
# This file generated by the LAST component (v1.3.0). Tver. R.E.A. 1999-2008
  VERS.                                             2.0 : CWLS LAS Version
  WRAP.                                              NO : Wrap mode
~Well information
  STRT.M                                             47 : Started at
  STOP.M                                         2016.4 : Stopped at
  STEP.M                                            0.2 : Step
  NULL.                                          -32768 : Null value
  COMP.                          ООО "Газпромгеоресурс" : Company
  WELL.                        Мест. Акшабулак Скв. 494 : Well
  FLD .                                       Акшабулак : Field
  CTRY.                                          Россия : Country
  SRVC.                                            ГЕРС : Service company
  DATE.                                      24.04.2024 : Date
~Curve information
  DEPTH.                                                : 
  S123456.м.                                            : Тальблок
  S200.т.                                               : Вес на крюке
  S300.атм.                                             : Давление нагн.
  S720.м3                                               : Сум.объем в емк
  S800.°С                                               : Темпер. на вх.
  S900.°С                                               : Темпер. на вых.
  S1200.мин-1                                           : Обороты рот.
  S50 .мин-1                                            : Ходы 1 нас.
  S51 .мин-1                                            : Ходы 2 нас.
  S1001.л/c                                             : Расх на вх.
  S106.м/ч                                              : Скорость бур.
  S107.мин/м                                            : ДМК
  S202.т.                                               : Нагрузка на дол
~Other information
~ASCII Log data
# ...
 1746.0  2.49832 51.55705 119.43398 48.41578 42.07653 43.14194  41.03552   0.00000  96.81266 23.90281  17.23691  3.48090  5.06795
 1746.2  2.30316 51.91605 117.41034 48.42617 42.09101 43.17062  41.02414   0.00000  96.92448 23.93042  22.38744  2.68007  4.70895
 1746.4  2.10016 52.31876 116.11301 48.36763 42.10207 43.26379  41.11085   0.00000  96.08020 23.72197  31.29587  1.91719  4.30624
 1746.6 11.69902 53.95805 108.99388 48.31085 42.14025 43.24664  34.36425   0.00000  97.93672 24.18034  10.09885  5.94127  2.91004
 1746.8 11.49703 54.94141 116.28575 47.99414 42.25650 42.95542  39.34582   0.00000  99.59467 24.58968  55.09810  1.08897  1.92734
 1747.0 11.29926 53.02743 123.19026 47.92799 42.25963 42.97850  39.27924   0.00000  99.08227 24.46317  47.20454  1.27106  3.77257
 1747.2 11.09727 52.30244 123.47059 47.99641 42.26081 42.98599  39.24299   0.00000  98.95192 24.43099  36.34828  1.65070  4.49756
 1747.4 10.89527 51.95316 124.83683 47.96721 42.26992 43.01743  39.20948   0.00000  98.81555 24.39732  34.96610  1.71595  4.84684
 1747.6 10.69746 52.26277 122.49834 48.01594 42.27743 43.06803  39.35888   0.00000  99.13181 24.47540  29.41794  2.03957  4.53723
 1747.8 10.49547 52.88113 121.53501 48.02362 42.27911 43.12187  39.36475   0.00000  99.29179 24.51490  30.05475  1.99636  3.91887
 1748.0 10.29770 53.76817 117.35315 48.02976 42.28522 43.13894  39.51898   0.00000  99.71694 24.61987  29.40099  2.04075  3.03183
 1748.2 10.09570 52.31204 122.29678 48.00204 42.29059 43.12765  39.53344   0.00000  99.28384 24.51294  34.97115  1.71570  4.48796
 1748.4  9.89371 52.17678 121.01460 48.06359 42.29685 43.12287  39.55359   0.00000  99.44201 24.55199  26.73583  2.24418  4.62321
 1748.6  9.69590 52.19350 122.52812 48.04192 42.30515 43.16889  39.40958   0.00000  99.26246 24.50766  25.62699  2.34128  4.60650
 1748.8  9.49391 52.83627 122.42429 48.01257 42.31187 43.25471  39.31678   0.00000  99.29336 24.51529  25.43167  2.35926  3.96373
 1749.0  9.29613 53.42543 119.53375 47.87609 42.31835 43.28063  39.42370   0.00000  99.65767 24.60524  26.94775  2.22653  3.37457
 1749.2  9.09414 53.47386 117.79570 47.72480 42.32712 43.26538  39.57803   0.00000  97.41885 24.05248  19.98173  3.00274  3.32614
 1749.4  8.89637 54.70002 108.49318 47.97157 42.33769 43.22886  39.59907   0.00000  94.94355 23.44133  20.45993  2.93256  2.09998
 1749.6  8.69438 52.99050 118.14689 47.92896 42.34550 43.31299  39.36488   0.00000  96.30659 23.77787  25.80982  2.32470  3.80950
 1749.8  8.49656 52.74377 118.81304 48.03384 42.34969 43.32797  39.34467   0.00000  96.29221 23.77431  25.42811  2.35959  4.05623
 1750.0  8.29457 52.58435 119.22300 48.00685 42.35911 43.32716  39.29997   0.00000  96.27902 23.77106  24.07205  2.49252  4.21565
 1750.2  8.09680 52.04878 119.85345 47.95848 42.36753 43.37024  39.34029   0.00000  96.28657 23.77292  16.10665  3.72517  4.75122
 1750.4  7.89480 52.22828 119.50119 47.97867 42.37822 43.34787  39.32143   0.00000  96.35364 23.78948  16.60642  3.61306  4.57172
 1750.6  7.69699 52.40302 117.17628 47.94321 42.38807 43.30869  39.30183   0.00000  96.65295 23.86338  19.04536  3.15037  4.39698
 1750.8  7.49500 52.06202 117.97976 47.98592 42.39581 43.31885  39.26352   0.00000  96.58839 23.84744  19.57931  3.06446  4.73798
 1751.0  7.29594 52.41936 117.92021 47.90806 42.40345 43.32670  39.29526   0.00000  96.63454 23.85883  23.89160  2.51134  4.38064
 1751.2  7.09684 52.67941 116.03669 47.83382 42.41328 43.43141  39.39183   0.00000  96.82426 23.90568  22.54137  2.66177  4.12059
 1751.4  6.89387 52.82825 115.76577 47.84518 42.41677 43.47868  39.35427   0.00000  96.87936 23.91928  28.10810  2.13462  3.97175
 1751.6  6.69477 53.02694 116.77091 47.86246 42.42252 43.51180  39.43318   0.00000  96.88235 23.92002  26.33584  2.27826  3.77306
 1751.8  6.49566 53.06754 112.41166 47.80130 42.43264 43.48428  39.40494   0.00000  97.27239 24.01632  25.02862  2.39726  3.73246
 1752.0  6.29660 52.85270 114.52397 47.69173 42.43995 43.58484  39.40626   0.00000  97.08574 23.97023  28.92235  2.07452  3.94731
 1752.2  6.09750 52.59626 116.72462 47.76955 42.44537 43.58372  39.48973   0.00000  96.84504 23.91081  22.55449  2.66022  4.20374
 1752.4  5.89453 52.88659 115.58347 47.72610 42.44728 43.61253  39.39980   0.00000  96.94080 23.93445  27.25570  2.20137  3.91341
 1752.6  5.69543 52.50574 118.63935 47.61980 42.45520 43.55754  39.41926   0.00000  96.62963 23.85762  22.82783  2.62837  4.29425
 1752.8  5.49633 52.47392 118.96423 47.57283 42.46228 43.57711  39.23867   0.00000  96.51868 23.83023  27.66336  2.16893  4.32609
 1753.0  5.29727 53.28526 116.69652 47.58665 42.46712 43.56143  39.33856   0.00000  96.61015 23.85281  17.23029  3.48224  3.51474
 1753.2  5.09426 53.93467 110.94837 47.48880 42.47408 43.38933  39.32507   0.00000  97.17104 23.99129  25.90060  2.31655  2.86533
 1753.4  4.89520 53.53303 109.71599 47.44449 42.48036 43.40899  39.35173   0.00000  97.19855 23.99809  24.06589  2.49316  3.26697
 1753.6  4.69609 53.10863 109.29418 47.39230 42.48404 43.45046  39.33800   0.00000  97.20064 23.99860  25.41750  2.36058  3.69136
 1753.8  4.49699 52.95791 114.99097 47.36681 42.49330 43.47157  39.07418   0.00000  96.67664 23.86923  21.33306  2.81254  3.84209
 1754.0  4.29402 53.29861 114.25080 47.43253 42.50216 43.44490  39.23379   0.00000  96.78669 23.89640  32.05872  1.87157  3.50139
 1754.2  4.09492 53.50022 113.26831 47.30942 42.50570 43.31741  39.18750   0.00000  96.90276 23.92505  35.46082  1.69201  3.29978
 1754.4  3.89586 53.90888 113.16943 47.29343 42.50953 43.35720  39.26261   0.00000  96.87055 23.91710  34.45904  1.74120  2.89112
 1754.6  3.69676 54.96875 109.89550 47.30849 42.51358 43.37029  39.34914   0.00000  97.07899 23.96857  49.77763  1.20536  1.83125
 1754.8  3.49375 53.91512 113.07311 47.30930 42.51772 43.37173  39.33794   0.00000  96.80760 23.90156  48.75000  1.23077  2.88488
 1755.0  3.29469 53.65462 112.36844 47.35098 42.52120 43.41908  39.46237   0.00000  97.00049 23.94919  48.69141  1.23225  3.14538
 1755.2  3.09559 53.72456 110.87306 47.41052 42.52284 43.44294  39.38200   0.00000  97.12787 23.98064  52.44705  1.14401  3.07544
 1755.4  2.89652 54.27020 108.88549 47.44530 42.52803 43.40893  39.04760   0.00000  97.41483 24.05149  35.47280  1.69144  2.52981
 1755.6  2.70133 54.73580 108.52347 47.27729 42.53680 43.31680  39.43552   0.00000  97.65121 24.10985  47.48838  1.26347  2.06420
 1755.8  2.49441 54.39875 109.60854 47.27805 42.53890 43.38646  39.37223   0.00000  97.60820 24.09923  36.85497  1.62800  2.40126
 1756.0  2.29535 54.79333 108.98997 47.40329 42.54853 43.40270  39.34732   0.00000  97.62272 24.10281  30.89564  1.94202  2.00667
 1756.2  2.09625 53.31856 112.88307 47.33548 42.54985 43.38830  39.33683   0.00000  97.39869 24.04750  25.29136  2.37235  3.48144
 1756.4 11.39184 55.41071 103.78769 47.30873 42.58663 43.47987  32.15354   0.00000  98.17442 24.23903   4.98408 12.03834  1.42049
 1756.6 11.19402 54.06379 113.31728 46.88782 42.65905 43.61571  37.39359   0.00000  98.32243 24.27557  18.35915  3.26812  2.91121
 1756.8 10.99203 54.17167 111.51334 46.87087 42.66791 43.63545  37.39467   0.00000  98.55971 24.33415  22.87307  2.62317  2.80333
 1757.0 10.79426 53.93099 114.93382 46.86683 42.67122 43.63961  37.34638   0.00000  98.29546 24.26891  37.08079  1.61809  3.04401
 1757.2 10.59227 53.09724 116.51582 46.86724 42.67519 43.59502  37.35227   0.00000  98.03423 24.20441  22.23447  2.69851  3.87776
 1757.4 10.39449 53.67364 114.41730 46.84952 42.68204 43.66924  37.44147   0.00000  98.31456 24.27363  23.39070  2.56512  3.30136
 1757.6 10.19250 53.30598 116.54976 46.85439 42.68607 43.67827  37.46453   0.00000  98.12199 24.22608  32.72292  1.83358  3.66902
 1757.8  9.99469 53.17928 117.29892 46.79890 42.69602 43.65540  37.46190   0.00000  97.99577 24.19492  27.82848  2.15606  3.79572
 1758.0  9.79270 53.66468 114.53230 46.78105 42.70174 43.69224  37.50562   0.00000  98.26892 24.26236  19.55146  3.06882  3.31032
 1758.2  9.59492 54.64296 108.71261 46.70238 42.71919 43.72571  22.77770   0.00000  98.61603 24.34806   7.54798  7.94915  2.33204
