~Version information
# This file generated by the LAST component (v1.3.0). Tver. R.E.A. 1999-2008
  VERS.                                             2.0 : CWLS LAS Version
  WRAP.                                              NO : Wrap mode
~Well information
  STRT.M                                             47 : Started at
  STOP.M                                         2016.4 : Stopped at
  STEP.M                                            0.2 : Step
  NULL.                                          -32768 : Null value
  COMP.                          ООО "Газпромгеоресурс" : Company
  WELL.                        Мест. Акшабулак Скв. 494 : Well
  FLD .                                       Акшабулак : Field
  CTRY.                                          Россия : Country
  SRVC.                                            ГЕРС : Service company
  DATE.                                      24.04.2024 : Date
~Curve information
  DEPTH.                                                : 
  S123456.м.                                            : Тальблок
  S200.т.                                               : Вес на крюке
  S300.атм.                                             : Давление нагн.
  S720.м3                                               : Сум.объем в емк
  S800.°С                                               : Темпер. на вх.
  S900.°С                                               : Темпер. на вых.
  S1200.мин-1                                           : Обороты рот.
  S50 .мин-1                                            : Ходы 1 нас.
  S51 .мин-1                                            : Ходы 2 нас.
  S1001.л/c                                             : Расх на вх.
  S106.м/ч                                              : Скорость бур.
  S107.мин/м                                            : ДМК
  S202.т.                                               : Нагрузка на дол
~Other information
~ASCII Log data
# ...
 1609.6  5.59004 46.33183  97.61816 70.88004 40.37431 40.77039   0.00000   0.00000 105.67982 26.09209  14.91375  4.02313  7.84317
 1609.8  5.39484 45.82439  97.97932 70.84533 40.39166 40.81538   0.00000   0.00000 105.73562 26.10587  11.71143  5.12320  8.35061
 1610.0  5.19187 45.83271  99.19044 70.84404 40.41753 40.84859   0.00000   0.00000 105.65103 26.08498  13.89127  4.31926  8.34229
 1610.2  4.98887 46.36953  99.89931 70.71839 40.43478 40.86788   0.00000   0.00000 105.65515 26.08600  16.32218  3.67598  7.80547
 1610.4  4.78977 46.69914  97.81751 70.72090 40.44804 40.87431   0.00000   0.00000 105.71637 26.10112  15.30672  3.91985  7.47586
 1610.6  4.59461 46.52985  98.42490 70.96137 40.46428 40.89903   0.00000   0.00000 105.60633 26.07395  17.74392  3.38144  7.64515
 1610.8  4.39160 46.39891  98.83358 70.69096 40.48132 40.89336   0.00000   0.00000 105.61301 26.07560  14.95699  4.01150  7.77609
 1611.0  4.18863 46.42443 104.01273 70.60680 40.49444 40.90111   0.00000   0.00000 105.17513 25.96748  20.48086  2.92956  7.75057
 1611.2  3.98953 46.90512 100.63007 70.64544 40.51045 40.89617   0.00000   0.00000 105.51859 26.05229  18.51825  3.24005  7.26988
 1611.4  3.79043 46.46052 101.26015 70.71525 40.52385 40.90551   0.00000   0.00000 105.46636 26.03939  18.54943  3.23460  7.71448
 1611.6  3.59137 46.24029 100.78299 70.72876 40.53853 40.92054   0.00000   0.00000 105.47127 26.04060  16.69482  3.59393  7.93471
 1611.8  3.38836 46.50365 101.10346 70.66369 40.55597 40.92409   0.00000   0.00000 105.40857 26.02512  14.93225  4.01815  7.67135
 1612.0  3.18930 46.99442  99.10347 70.63734 40.57216 40.91472   0.00000   0.00000 105.56959 26.06487  17.21318  3.48570  7.18058
 1612.2  2.99020 46.30420 103.05505 70.64423 40.58432 40.92383   0.00000   0.00000 105.16504 25.96499  19.80022  3.03027  7.87080
 1612.4  2.79109 46.68055  99.21895 70.83398 40.59585 40.94700   0.00000   0.00000 105.35307 26.01142  16.66546  3.60026  7.49445
 1612.6  2.59203 45.99972 104.26891 70.53188 40.60688 40.95900   0.00000   0.00000 105.03994 25.93411  28.33012  2.11789  8.17528
 1612.8  2.38902 46.22889 105.06480 70.64979 40.61470 40.97907   0.00000   0.00000 105.05910 25.93884  25.87950  2.31844  7.94611
 1613.0  2.18996 45.89539 104.18203 70.63602 40.62558 40.97376   0.00000   0.00000 105.21677 25.97777  27.19194  2.20654  8.27961
 1613.2 11.27398 46.74500  89.55387 70.64451 40.66541 41.00269   0.45034   0.00000 106.05838 26.18556   2.80189 21.41413  7.43138
 1613.4 11.07621 50.93737 113.24733 69.77829 40.51414 40.77150  40.34194   0.00000 107.09435 26.44134  24.39567  2.45945  3.41263
 1613.6 10.87422 50.79261 113.54671 69.79095 40.51286 40.73087  40.31953   0.00000 106.91917 26.39808  22.77008  2.63504  3.55739
 1613.8 10.67645 50.69823 112.74872 69.90864 40.51539 40.72548  40.22884   0.00000 107.26031 26.48231  25.62494  2.34147  3.65177
 1614.0 10.47445 51.86919 106.10326 69.78144 40.51942 40.73449  40.42599   0.00000 107.98205 26.66051  16.91384  3.54739  2.48081
 1614.2 10.27664 50.10699 114.88940 69.83446 40.52363 40.72591  40.26179   0.00000 107.02818 26.42500  27.78980  2.15907  4.24301
 1614.4 10.07465 50.48919 110.93681 69.91395 40.52369 40.67627  40.29048   0.00000 107.60263 26.56683  24.92326  2.40739  3.86081
 1614.6  9.87687 50.20318 112.30513 69.90517 40.52657 40.73244  40.25624   0.00000 107.57519 26.56005  32.07542  1.87059  4.14682
 1614.8  9.67488 49.94704 112.59119 69.84727 40.52912 40.73484  40.21191   0.00000 107.43542 26.52555  30.81497  1.94711  4.40296
 1615.0  9.47707 49.47428 115.13548 69.88272 40.53242 40.76222  40.13050   0.00000 107.02594 26.42445  28.39554  2.11301  4.87572
 1615.2  9.27930 50.06099 112.31173 69.92152 40.53268 40.77000  40.20615   0.00000 107.39382 26.51527  30.54093  1.96458  4.28901
 1615.4  9.07730 50.08855 110.45472 69.82351 40.53603 40.77927  40.29059   0.00000 107.52787 26.54837  24.08261  2.49142  4.26145
 1615.6  8.87953 50.14156 109.65646 69.92162 40.54076 40.78913  40.34299   0.00000 107.71879 26.59551  16.38125  3.66272  4.20844
 1615.8  8.68172 50.09319 109.87750 69.83733 40.54497 40.81921  40.31218   0.00000 107.77724 26.60994  28.02922  2.14062  4.25681
 1616.0  8.47555 49.88033 112.64024 70.13653 40.54919 40.79701  40.25731   0.00000 107.59065 26.56387  31.90940  1.88032  4.46967
 1616.2  8.27773 49.66162 111.92512 70.21499 40.55350 40.79870  40.33900   0.00000 107.74162 26.60115  25.25043  2.37620  4.68838
 1616.4  8.07574 50.00734 111.44920 69.89536 40.56133 40.78541  40.38065   0.00000 107.52706 26.54817  26.54458  2.26035  4.34266
 1616.6  7.87375 49.92855 111.15582 69.87488 40.56592 40.81507  40.39670   0.00000 107.74030 26.60082  29.68945  2.02092  4.42145
 1616.8  7.67598 49.71302 111.56435 69.82076 40.57045 40.81964  40.28907   0.00000 107.52781 26.54836  27.14091  2.21069  4.63698
 1617.0  7.47551 49.72540 111.97843 69.78808 40.57497 40.87224  40.25499   0.00000 107.54181 26.55181  28.52931  2.10310  4.62460
 1617.2  7.27641 49.45696 112.43571 69.90428 40.58033 40.83673  40.24356   0.00000 107.31842 26.49666  25.71548  2.33322  4.89304
 1617.4  7.07730 49.48350 111.32733 69.92095 40.58488 40.84814  40.25719   0.00000 107.44138 26.52702  23.58243  2.54427  4.86650
 1617.6  6.87434 49.48699 112.06469 69.91321 40.59389 40.86312  40.22594   0.00000 107.36754 26.50879  24.18340  2.48104  4.86301
 1617.8  6.67914 49.83264 109.95602 70.24373 40.60016 40.89521  40.22963   0.00000 107.65123 26.57883  23.57879  2.54466  4.51736
 1618.0  6.48398 51.34840  98.43243 69.67379 40.59330 40.92651  30.60685   0.00000 108.32918 26.74621   6.69716  8.95902  3.00160
 1618.2  6.27707 47.79947 104.79310 68.33118 40.49009 41.04559   0.00000   0.00000 106.27597 26.23928  27.05479  2.21772  6.55053
 1618.4  6.07410 48.44546 100.67680 68.36658 40.49784 41.04338   0.13376   0.00000 106.64008 26.32918   6.63649  9.04092  5.90454
 1618.6  5.87500 47.79272 105.63249 68.21896 40.50603 41.10881   0.00000   0.00000 106.13995 26.20569  17.74027  3.38214  6.55728
 1618.8  5.67590 46.63709 105.35027 68.61404 40.51329 41.14064   0.00000   0.00000 106.03989 26.18099  15.31611  3.91744  7.71291
 1619.0  5.48074 46.94050 102.63869 68.38645 40.54878 41.15159   0.00000   0.00000 106.34682 26.25677  10.50013  5.71421  7.40950
 1619.2  5.27383 46.67961 101.13522 68.37417 40.60094 41.16719   0.00000   0.00000 106.46764 26.28660  12.25584  4.89563  7.67039
 1619.4  5.07863 46.91955 101.43026 68.41771 40.64144 41.23937   0.26604   0.00000 106.61422 26.32279  13.17600  4.55373  7.43045
 1619.6  4.87566 46.37343 100.61544 68.55595 40.68081 41.25820   0.00000   0.00000 106.76815 26.36080  13.72896  4.37032  7.97657
 1619.8  4.67656 45.58964  95.98416 68.47907 40.72874 41.31253   0.00000   0.00000 107.00285 26.41874   8.61072  6.96806  8.76036
 1620.0  4.47359 45.78889 105.55198 68.39063 40.76670 41.34613   0.00000   0.00000 106.26188 26.23580  19.90894  3.01372  8.56111
 1620.2  4.27449 45.86370 111.34004 68.34134 40.78626 41.35661   0.00000   0.00000 105.78151 26.11720  27.70005  2.16606  8.48629
 1620.4  4.07543 45.71025 110.98460 68.42196 40.80385 41.34915   0.00000   0.00000 105.76753 26.11375  24.21364  2.47794  8.63975
 1620.6  3.87633 45.94080 108.30741 68.26768 40.82180 41.33408   0.00000   0.00000 105.87421 26.14009  23.90944  2.50947  8.40920
 1620.8  3.67723 45.63415 111.98982 67.65312 40.83447 41.35831   0.00000   0.00000 105.66244 26.08780  28.75137  2.08686  8.71585
 1621.0  3.47426 44.95387 115.23582 67.37730 40.83511 41.36295   0.00000   0.00000 105.36419 26.01416  27.47718  2.18363  9.39613
 1621.2  3.27516 45.27964 112.42647 67.20927 40.82843 41.36945   0.00000   0.00000 105.65321 26.08552  27.49966  2.18185  9.07036
 1621.4  3.07609 45.88364 112.46434 66.49995 40.82321 41.37115   0.62381   0.00000 105.64772 26.08417  29.66436  2.02263  8.46636
 1621.6  2.87699 45.07036 114.18349 65.90434 40.81666 41.37551   0.00000   0.00000 105.64766 26.08415  30.28948  1.98089  9.27964
 1621.8  2.67398 45.24822 113.91967 65.42065 40.81082 41.33174   0.00000   0.00000 105.61004 26.07486  27.10484  2.21363  9.10178
