~VERSION INFORMATION
 VERS.                   2.0    :   CWLS Log ANSI Standart -VERSION 2.0
 WRAP.                   NO     :   One Line per depth step
~WELL INFORMATION
 STRT.M                    47.00                 :START DEPTH                                      
 STOP.M                  2016.20                 :STOP DEPTH                                      
 STEP.M                     0.20                 :STEP                                      
 NULL.                  -32768                   :NULL VALUE                                   
 COMP.                  ООО "Газпромгеоресурс"   :COMPANY                                                  
 WELL.                  494                      :WELL                               
 FLD .                  Акшабулак                :FIELD                                    
 LOC .                  Казахстан                :LOCATION                                    
 PROV.                                           :PROVINCE                           
 SRVC.                                           :SERVICE COMPANY                           
 DATE.                  21.05.40                 :LOG DATE                               
 UWI .                                           :UNIQUE WELL ID                           
~CURVE INFORMATION
 DEPTH            .М                             :DEPTH                             
 ГЛУБИНА СКВАЖИНЫ .м                             :Глубина                                                  
 ГЛУБИНА КОН      .м                             :Глубина кон                                             
 КОД ПОРОДЫ       .                              :Код породы                                           
 ГЛУБИНА СКВАЖИНЫ .м                             :Глубина                                                  
 ГЛУБИНА КОН      .м                             :Глубина кон                                             
 ПОРОДА1 КОД      .                              :Порода1 код                                            
 ПОРОДА1 КОЛИЧ    .%                             :Порода1 колич.                                               
 ПОРОДА2 КОД      .                              :Порода2 код                                            
 ПОРОДА2 КОЛИЧ    .%                             :Порода2 колич.                                               
 ПОРОДА3 КОД      .                              :Порода3 код                                            
 ПОРОДА3 КОЛИЧ    .%                             :Порода3 колич.                                               
 ПОРОДА4 КОД      .                              :Порода4 код                                            
 ПОРОДА4 КОЛИЧ    .%                             :Порода4 колич.                                               
 ПОРОДА5 КОД      .                              :Порода5 код                                            
 ПОРОДА5 КОЛИЧ    .%                             :Порода5 колич.                                               
 CaCO3 (кальцит)  .%                             :Кальцит                                                 
 Intensity_LBA    .баллы                         :ЛБА интенсивность                                                   
 C1               .%                             :C1                                    
 C2               .%                             :C2                                    
 C3               .%                             :C3                                    
 C4               .%                             :C4                                    
 C5               .%                             :C5                                    
 iC4              .%                             :iC4                                     
 iC5              .%                             :iC5                                     
 Сумма газов      .%                             :Сумма газов                                             
~O  Породы сравочника
#Код породы - Название породы
1-Кальцит
2-Доломит
3-Глина с пиритом
4-Глина с ОРД
5-Аргиллит
6-Известняк
7-Известняк глинистый
8-Известняк доломитистый
9-Известняк с признаками УВ.
10-Известняк окремнелый
11-Мел
12-Мергель
13-Кальцит
14-14
15-15
16-Песок
17-Песок с гравием
18-Песок с признаками УВ
19-Песчаник
20-Песчаник с признаками УВ
21-Брекчия
22-Конгломерат
23-Галька
24-Anatexite
25-Гравелит
26-Алеврит
27-Алевролит
28-Ангидрит
29-Гипс
30-Гипс-ангидрит
31-Каменная соль
32-Туфогенная порода
33-Уголь
34-Цемент
35-Башмак колонны
36-Нефть
37-Кварцитовидный песчаник
38-Кварцит
39-Глина
40-Глина алевритистая
41-Aplite
42-Basalt
43-Basement
44-Diatexite
45-Gneiss
46-Granite
47-Hornfels
48-Intrusive rock
49-Marly limestones
50-Metamorphic Rock
51-Phyllite
52-сланец глинисты
53-Schist
54-Slate
55-55
56-Гравий
57-Гипсо-ангидрит
58-Кристаллический Сланец
59-узен Песчаники
60-Узен гравелиты
61-Узен извястники
62-Узен метоморфический породы
~A Log data section
# ...
2008.80     1973.0000   2016.4000     62.0000   2005.0000   2010.0000     62.0000    100.0000      0.0000      0.0000      0.0000      0.0000      0.0000      0.0000      0.0000      0.0000      7.0000      0.0000      0.0220     0.0040    0.0027    0.0000    0.0000    0.0000    0.0000    0.0287
2009.00     1973.0000   2016.4000     62.0000   2005.0000   2010.0000     62.0000    100.0000      0.0000      0.0000      0.0000      0.0000      0.0000      0.0000      0.0000      0.0000      7.0000      0.0000      0.0229     0.0034    0.0033    0.0000    0.0000    0.0000    0.0000    0.0296
2009.20     1973.0000   2016.4000     62.0000   2005.0000   2010.0000     62.0000    100.0000      0.0000      0.0000      0.0000      0.0000      0.0000      0.0000      0.0000      0.0000      7.0000      0.0000      0.0229     0.0034    0.0033    0.0000    0.0000    0.0000    0.0000    0.0296
2009.40     1973.0000   2016.4000     62.0000   2005.0000   2010.0000     62.0000    100.0000      0.0000      0.0000      0.0000      0.0000      0.0000      0.0000      0.0000      0.0000      7.0000      0.0000      0.0228     0.0033    0.0033    0.0000    0.0000    0.0000    0.0000    0.0294
2009.60     1973.0000   2016.4000     62.0000   2005.0000   2010.0000     62.0000    100.0000      0.0000      0.0000      0.0000      0.0000      0.0000      0.0000      0.0000      0.0000      7.0000      0.0000      0.0220     0.0042    0.0026    0.0011    0.0000    0.0000    0.0000    0.0299
2009.80     1973.0000   2016.4000     62.0000   2005.0000   2010.0000     62.0000    100.0000      0.0000      0.0000      0.0000      0.0000      0.0000      0.0000      0.0000      0.0000      7.0000      0.0000      0.0220     0.0042    0.0026    0.0011    0.0000    0.0000    0.0000    0.0299
2010.00     1973.0000   2016.4000     62.0000   2010.0000   2015.0000     62.0000    100.0000      0.0000      0.0000      0.0000      0.0000      0.0000      0.0000      0.0000      0.0000      7.0000      0.0000      0.0229     0.0040    0.0025    0.0006    0.0000    0.0000    0.0000    0.0300
2010.20     1973.0000   2016.4000     62.0000   2010.0000   2015.0000     62.0000    100.0000      0.0000      0.0000      0.0000      0.0000      0.0000      0.0000      0.0000      0.0000      7.0000      0.0000      0.0242     0.0036    0.0030    0.0000    0.0000    0.0000    0.0000    0.0308
2010.40     1973.0000   2016.4000     62.0000   2010.0000   2015.0000     62.0000    100.0000      0.0000      0.0000      0.0000      0.0000      0.0000      0.0000      0.0000      0.0000      7.0000      0.0000      0.0242     0.0036    0.0030    0.0000    0.0000    0.0000    0.0000    0.0308
2010.60     1973.0000   2016.4000     62.0000   2010.0000   2015.0000     62.0000    100.0000      0.0000      0.0000      0.0000      0.0000      0.0000      0.0000      0.0000      0.0000      7.0000      0.0000      0.0265     0.0030    0.0024    0.0000    0.0000    0.0000    0.0000    0.0319
2010.80     1973.0000   2016.4000     62.0000   2010.0000   2015.0000     62.0000    100.0000      0.0000      0.0000      0.0000      0.0000      0.0000      0.0000      0.0000      0.0000      7.0000      0.0000      0.0247     0.0070    0.0030    0.0255    0.0000    0.0049    0.0000    0.0602
2011.00     1973.0000   2016.4000     62.0000   2010.0000   2015.0000     62.0000    100.0000      0.0000      0.0000      0.0000      0.0000      0.0000      0.0000      0.0000      0.0000      7.0000      0.0000      0.0247     0.0070    0.0030    0.0255    0.0000    0.0049    0.0000    0.0602
2011.20     1973.0000   2016.4000     62.0000   2010.0000   2015.0000     62.0000    100.0000      0.0000      0.0000      0.0000      0.0000      0.0000      0.0000      0.0000      0.0000      7.0000      0.0000      0.0217     0.0025    0.0028    0.0007    0.0000    0.0000    0.0000    0.0277
2011.40     1973.0000   2016.4000     62.0000   2010.0000   2015.0000     62.0000    100.0000      0.0000      0.0000      0.0000      0.0000      0.0000      0.0000      0.0000      0.0000      7.0000      0.0000      0.0223     0.0030    0.0022    0.0000    0.0000    0.0000    0.0000    0.0275
2011.60     1973.0000   2016.4000     62.0000   2010.0000   2015.0000     62.0000    100.0000      0.0000      0.0000      0.0000      0.0000      0.0000      0.0000      0.0000      0.0000      7.0000      0.0000      0.0230     0.0033    0.0019    0.0000    0.0000    0.0000    0.0000    0.0282
2011.80     1973.0000   2016.4000     62.0000   2010.0000   2015.0000     62.0000    100.0000      0.0000      0.0000      0.0000      0.0000      0.0000      0.0000      0.0000      0.0000      7.0000      0.0000      0.0230     0.0033    0.0019    0.0000    0.0000    0.0000    0.0000    0.0282
2012.00     1973.0000   2016.4000     62.0000   2010.0000   2015.0000     62.0000    100.0000      0.0000      0.0000      0.0000      0.0000      0.0000      0.0000      0.0000      0.0000      7.0000      0.0000      0.0181     0.0018    0.0020    0.0003    0.0000    0.0000    0.0000    0.0222
2012.20     1973.0000   2016.4000     62.0000   2010.0000   2015.0000     62.0000    100.0000      0.0000      0.0000      0.0000      0.0000      0.0000      0.0000      0.0000      0.0000      7.0000      0.0000      0.0222     0.0017    0.0013    0.0000    0.0000    0.0000    0.0000    0.0252
2012.40     1973.0000   2016.4000     62.0000   2010.0000   2015.0000     62.0000    100.0000      0.0000      0.0000      0.0000      0.0000      0.0000      0.0000      0.0000      0.0000      7.0000      0.0000      0.0213     0.0021    0.0021    0.0025    0.0000    0.0000    0.0000    0.0280
2012.60     1973.0000   2016.4000     62.0000   2010.0000   2015.0000     62.0000    100.0000      0.0000      0.0000      0.0000      0.0000      0.0000      0.0000      0.0000      0.0000      7.0000      0.0000      0.0213     0.0021    0.0021    0.0025    0.0000    0.0000    0.0000    0.0280
2012.80     1973.0000   2016.4000     62.0000   2010.0000   2015.0000     62.0000    100.0000      0.0000      0.0000      0.0000      0.0000      0.0000      0.0000      0.0000      0.0000      7.0000      0.0000      0.0236     0.0004    0.0034    0.0003    0.0000    0.0000    0.0000    0.0277
2013.00     1973.0000   2016.4000     62.0000   2010.0000   2015.0000     62.0000    100.0000      0.0000      0.0000      0.0000      0.0000      0.0000      0.0000      0.0000      0.0000      7.0000      0.0000      0.0236     0.0004    0.0034    0.0003    0.0000    0.0000    0.0000    0.0277
2013.20     1973.0000   2016.4000     62.0000   2010.0000   2015.0000     62.0000    100.0000      0.0000      0.0000      0.0000      0.0000      0.0000      0.0000      0.0000      0.0000      7.0000      0.0000      0.0195     0.0009    0.0015    0.0020    0.0000    0.0000    0.0000    0.0239
2013.40     1973.0000   2016.4000     62.0000   2010.0000   2015.0000     62.0000    100.0000      0.0000      0.0000      0.0000      0.0000      0.0000      0.0000      0.0000      0.0000      7.0000      0.0000      0.0212     0.0012    0.0021    0.0001    0.0000    0.0000    0.0000    0.0246
2013.60     1973.0000   2016.4000     62.0000   2010.0000   2015.0000     62.0000    100.0000      0.0000      0.0000      0.0000      0.0000      0.0000      0.0000      0.0000      0.0000      7.0000      0.0000      0.0226     0.0030    0.0015    0.0017    0.0000    0.0017    0.0000    0.0288
2013.80     1973.0000   2016.4000     62.0000   2010.0000   2015.0000     62.0000    100.0000      0.0000      0.0000      0.0000      0.0000      0.0000      0.0000      0.0000      0.0000      7.0000      0.0000      0.0226     0.0030    0.0015    0.0017    0.0000    0.0017    0.0000    0.0288
2014.00     1973.0000   2016.4000     62.0000   2010.0000   2015.0000     62.0000    100.0000      0.0000      0.0000      0.0000      0.0000      0.0000      0.0000      0.0000      0.0000      7.0000      0.0000      0.0232     0.0013    0.0019    0.0038    0.0000    0.0001    0.0000    0.0302
