~VERSION INFORMATION
 VERS.                   2.0    :   CWLS Log ANSI Standart -VERSION 2.0
 WRAP.                   NO     :   One Line per depth step
~WELL INFORMATION
 STRT.M                    47.00                 :START DEPTH                                      
 STOP.M                  2016.20                 :STOP DEPTH                                      
 STEP.M                     0.20                 :STEP                                      
 NULL.                  -32768                   :NULL VALUE                                   
 COMP.                  ООО "Газпромгеоресурс"   :COMPANY                                                  
 WELL.                  494                      :WELL                               
 FLD .                  Акшабулак                :FIELD                                    
 LOC .                  Казахстан                :LOCATION                                    
 PROV.                                           :PROVINCE                           
 SRVC.                                           :SERVICE COMPANY                           
 DATE.                  21.05.40                 :LOG DATE                               
 UWI .                                           :UNIQUE WELL ID                           
~CURVE INFORMATION
 DEPTH            .М                             :DEPTH                             
 ГЛУБИНА СКВАЖИНЫ .м                             :Глубина                                                  
 ГЛУБИНА КОН      .м                             :Глубина кон                                             
 КОД ПОРОДЫ       .                              :Код породы                                           
 ГЛУБИНА СКВАЖИНЫ .м                             :Глубина                                                  
 ГЛУБИНА КОН      .м                             :Глубина кон                                             
 ПОРОДА1 КОД      .                              :Порода1 код                                            
 ПОРОДА1 КОЛИЧ    .%                             :Порода1 колич.                                               
 ПОРОДА2 КОД      .                              :Порода2 код                                            
 ПОРОДА2 КОЛИЧ    .%                             :Порода2 колич.                                               
 ПОРОДА3 КОД      .                              :Порода3 код                                            
 ПОРОДА3 КОЛИЧ    .%                             :Порода3 колич.                                               
 ПОРОДА4 КОД      .                              :Порода4 код                                            
 ПОРОДА4 КОЛИЧ    .%                             :Порода4 колич.                                               
 ПОРОДА5 КОД      .                              :Порода5 код                                            
 ПОРОДА5 КОЛИЧ    .%                             :Порода5 колич.                                               
 CaCO3 (кальцит)  .%                             :Кальцит                                                 
 Intensity_LBA    .баллы                         :ЛБА интенсивность                                                   
 C1               .%                             :C1                                    
 C2               .%                             :C2                                    
 C3               .%                             :C3                                    
 C4               .%                             :C4                                    
 C5               .%                             :C5                                    
 iC4              .%                             :iC4                                     
 iC5              .%                             :iC5                                     
 Сумма газов      .%                             :Сумма газов                                             
~O  Породы сравочника
#Код породы - Название породы
1-Кальцит
2-Доломит
3-Глина с пиритом
4-Глина с ОРД
5-Аргиллит
6-Известняк
7-Известняк глинистый
8-Известняк доломитистый
9-Известняк с признаками УВ.
10-Известняк окремнелый
11-Мел
12-Мергель
13-Кальцит
14-14
15-15
16-Песок
17-Песок с гравием
18-Песок с признаками УВ
19-Песчаник
20-Песчаник с признаками УВ
21-Брекчия
22-Конгломерат
23-Галька
24-Anatexite
25-Гравелит
26-Алеврит
27-Алевролит
28-Ангидрит
29-Гипс
30-Гипс-ангидрит
31-Каменная соль
32-Туфогенная порода
33-Уголь
34-Цемент
35-Башмак колонны
36-Нефть
37-Кварцитовидный песчаник
38-Кварцит
39-Глина
40-Глина алевритистая
41-Aplite
42-Basalt
43-Basement
44-Diatexite
45-Gneiss
46-Granite
47-Hornfels
48-Intrusive rock
49-Marly limestones
50-Metamorphic Rock
51-Phyllite
52-сланец глинисты
53-Schist
54-Slate
55-55
56-Гравий
57-Гипсо-ангидрит
58-Кристаллический Сланец
59-узен Песчаники
60-Узен гравелиты
61-Узен извястники
62-Узен метоморфический породы
~A Log data section
 47.00        47.0000     47.8000     16.0000     47.0000     50.0000     39.0000     40.0000     16.0000     60.0000      0.0000      0.0000      0.0000      0.0000      0.0000      0.0000      0.0000      0.0000      0.0000    0.0000    0.0000    0.0000    0.0000    0.0000    0.0000    0.0000
 47.20        47.0000     47.8000     16.0000     47.0000     50.0000     39.0000     40.0000     16.0000     60.0000      0.0000      0.0000      0.0000      0.0000      0.0000      0.0000      0.0000      0.0000      0.0000    0.0000    0.0000    0.0000    0.0000    0.0000    0.0000    0.0000
 47.40        47.0000     47.8000     16.0000     47.0000     50.0000     39.0000     40.0000     16.0000     60.0000      0.0000      0.0000      0.0000      0.0000      0.0000      0.0000      0.0000      0.0000      0.0000    0.0000    0.0000    0.0000    0.0000    0.0000    0.0000    0.0000
 47.60        47.0000     47.8000     16.0000     47.0000     50.0000     39.0000     40.0000     16.0000     60.0000      0.0000      0.0000      0.0000      0.0000      0.0000      0.0000      0.0000      0.0000      0.0000    0.0000    0.0000    0.0000    0.0000    0.0000    0.0000    0.0000
 47.80        47.8000     48.6000     39.0000     47.0000     50.0000     39.0000     40.0000     16.0000     60.0000      0.0000      0.0000      0.0000      0.0000      0.0000      0.0000      0.0000      0.0000      0.0000    0.0000    0.0000    0.0000    0.0000    0.0000    0.0000    0.0000
 48.00        48.0000     70.0000     39.0000     48.0000     50.0000     39.0000    100.0000      0.0000      0.0000      0.0000      0.0000      0.0000      0.0000      0.0000      0.0000      0.0000      0.0000      0.0000    0.0000    0.0000    0.0000    0.0000    0.0000    0.0000    0.0000
 48.20        48.0000     70.0000     39.0000     48.0000     50.0000     39.0000    100.0000      0.0000      0.0000      0.0000      0.0000      0.0000      0.0000      0.0000      0.0000      0.0000      0.0000      0.0000    0.0000    0.0000    0.0000    0.0000    0.0000    0.0000    0.0000
 48.40        48.0000     70.0000     39.0000     48.0000     50.0000     39.0000    100.0000      0.0000      0.0000      0.0000      0.0000      0.0000      0.0000      0.0000      0.0000      0.0000      0.0000      0.0000    0.0000    0.0000    0.0000    0.0000    0.0000    0.0000    0.0000
 48.60        48.0000     70.0000     39.0000     48.0000     50.0000     39.0000    100.0000      0.0000      0.0000      0.0000      0.0000      0.0000      0.0000      0.0000      0.0000      0.0000      0.0000      0.0000    0.0000    0.0000    0.0000    0.0000    0.0000    0.0000    0.0000
 48.80        48.0000     70.0000     39.0000     48.0000     50.0000     39.0000    100.0000      0.0000      0.0000      0.0000      0.0000      0.0000      0.0000      0.0000      0.0000      0.0000      0.0000      0.0000    0.0000    0.0000    0.0000    0.0000    0.0000    0.0000    0.0000
 49.00        48.0000     70.0000     39.0000     48.0000     50.0000     39.0000    100.0000      0.0000      0.0000      0.0000      0.0000      0.0000      0.0000      0.0000      0.0000      0.0000      0.0000      0.0000    0.0000    0.0000    0.0000    0.0000    0.0000    0.0000    0.0000
 49.20        48.0000     70.0000     39.0000     48.0000     50.0000     39.0000    100.0000      0.0000      0.0000      0.0000      0.0000      0.0000      0.0000      0.0000      0.0000      0.0000      0.0000      0.0000    0.0000    0.0000    0.0000    0.0000    0.0000    0.0000    0.0000
 49.40        48.0000     70.0000     39.0000     48.0000     50.0000     39.0000    100.0000      0.0000      0.0000      0.0000      0.0000      0.0000      0.0000      0.0000      0.0000      0.0000      0.0000      0.0000    0.0000    0.0000    0.0000    0.0000    0.0000    0.0000    0.0000
 49.60        48.0000     70.0000     39.0000     48.0000     50.0000     39.0000    100.0000      0.0000      0.0000      0.0000      0.0000      0.0000      0.0000      0.0000      0.0000      0.0000      0.0000      0.0000    0.0000    0.0000    0.0000    0.0000    0.0000    0.0000    0.0000
 49.80        48.0000     70.0000     39.0000     48.0000     50.0000     39.0000    100.0000      0.0000      0.0000      0.0000      0.0000      0.0000      0.0000      0.0000      0.0000      0.0000      0.0000      0.0000    0.0000    0.0000    0.0000    0.0000    0.0000    0.0000    0.0000
 50.00        50.0000     51.0000     16.0000     50.0000     58.0000     39.0000     90.0000     16.0000     10.0000      0.0000      0.0000      0.0000      0.0000      0.0000      0.0000      3.0000      0.0000      0.0000    0.0000    0.0000    0.0000    0.0000    0.0000    0.0000    0.0000
 50.20        50.0000     51.0000     16.0000     50.0000     58.0000     39.0000     90.0000     16.0000     10.0000      0.0000      0.0000      0.0000      0.0000      0.0000      0.0000      3.0000      0.0000      0.0000    0.0000    0.0000    0.0000    0.0000    0.0000    0.0000    0.0000
 50.40        50.0000     51.0000     16.0000     50.0000     58.0000     39.0000     90.0000     16.0000     10.0000      0.0000      0.0000      0.0000      0.0000      0.0000      0.0000      3.0000      0.0000      0.0000    0.0000    0.0000    0.0000    0.0000    0.0000    0.0000    0.0000
 50.60        50.0000     51.0000     16.0000     50.0000     58.0000     39.0000     90.0000     16.0000     10.0000      0.0000      0.0000      0.0000      0.0000      0.0000      0.0000      3.0000      0.0000      0.0000    0.0000    0.0000    0.0000    0.0000    0.0000    0.0000    0.0000
 50.80        50.0000     51.0000     16.0000     50.0000     58.0000     39.0000     90.0000     16.0000     10.0000      0.0000      0.0000      0.0000      0.0000      0.0000      0.0000      3.0000      0.0000      0.0000    0.0000    0.0000    0.0000    0.0000    0.0000    0.0000    0.0000
 51.00        51.0000     58.0000     39.0000     50.0000     58.0000     39.0000     90.0000     16.0000     10.0000      0.0000      0.0000      0.0000      0.0000      0.0000      0.0000      3.0000      0.0000      0.0000    0.0000    0.0000    0.0000    0.0000    0.0000    0.0000    0.0000
 51.20        51.0000     58.0000     39.0000     50.0000     58.0000     39.0000     90.0000     16.0000     10.0000      0.0000      0.0000      0.0000      0.0000      0.0000      0.0000      3.0000      0.0000      0.0000    0.0000    0.0000    0.0000    0.0000    0.0000    0.0000    0.0000
 51.40        51.0000     58.0000     39.0000     50.0000     58.0000     39.0000     90.0000     16.0000     10.0000      0.0000      0.0000      0.0000      0.0000      0.0000      0.0000      3.0000      0.0000      0.0000    0.0000    0.0000    0.0000    0.0000    0.0000    0.0000    0.0000
 51.60        51.0000     58.0000     39.0000     50.0000     58.0000     39.0000     90.0000     16.0000     10.0000      0.0000      0.0000      0.0000      0.0000      0.0000      0.0000      3.0000      0.0000      0.0000    0.0000    0.0000    0.0000    0.0000    0.0000    0.0000    0.0000
 51.80        51.0000     58.0000     39.0000     50.0000     58.0000     39.0000     90.0000     16.0000     10.0000      0.0000      0.0000      0.0000      0.0000      0.0000      0.0000      3.0000      0.0000      0.0000    0.0000    0.0000    0.0000    0.0000    0.0000    0.0000    0.0000
 52.00        51.0000     58.0000     39.0000     50.0000     58.0000     39.0000     90.0000     16.0000     10.0000      0.0000      0.0000      0.0000      0.0000      0.0000      0.0000      3.0000      0.0000      0.0000    0.0000    0.0000    0.0000    0.0000    0.0000    0.0000    0.0000
 52.20        51.0000     58.0000     39.0000     50.0000     58.0000     39.0000     90.0000     16.0000     10.0000      0.0000      0.0000      0.0000      0.0000      0.0000      0.0000      3.0000      0.0000      0.0000    0.0000    0.0000    0.0000    0.0000    0.0000    0.0000    0.0000
 52.40        51.0000     58.0000     39.0000     50.0000     58.0000     39.0000     90.0000     16.0000     10.0000      0.0000      0.0000      0.0000      0.0000      0.0000      0.0000      3.0000      0.0000      0.0000    0.0000    0.0000    0.0000    0.0000    0.0000    0.0000    0.0000
